id|iso_country|slug_place|latitude|longitude|nearest_iata_code|kdtree_dist_ns_cities_id
mx:acapulco|mx|Acapulco|16.863611|-99.8825|ACA|0.036159498351058084|
es:barcelona|es|Barcelona|41.385064|2.1734035|BCN|0.010150946175110963|
es:benissa|es|Benissa|38.715322509637616|0.05373179868911394|ALC|0.6490844813329582|
ar:buenos aires|ar|Buenos Aires|-34.603333|-58.381667|BUE|0.01585489760294972|
za:cape town|za|Cape Town|-33.924869|18.424055|CPT|0.011979156314197738|
do:santo domingo|do|Santo Domingo|18.466667|-69.95|SDQ|0.05001795166738425|
cu:havana cuba|cu|Havana, Cuba|23.133333|-82.383333|HAV|0.019179378978472262|
pe:ica|pe|Ica|-14.066667|-75.733333|ICA|0.007945613758551115|
za:johannesburg|za|Johannesburg|-26.204103|28.047305|JNB|0.03824235392859454|
pe:lima|pe|Lima|-12.043333|-77.028333|LIM|0.02226169755431657|
bo:la paz|bo|La Paz |-16.5|-68.15|LPB|0.0019999999999988916|
es:madrid|es|Madrid|40.416775|-3.7037902|MAD|0.02640380429105037|
mx:mexico city|mx|Mexico City|19.4326077|-99.13320799999997|MEX|0.010038147403274855|
gt:guatemala city|gt|Guatemala City|14.613333|-90.535278|GUA|0.011351280676648819|
cl:santiago de chile|cl|Santiago de Chile|-33.44863074367262|-70.64208984375001|SCL|0.02494776036619065|
ec:quito|ec|Quito|-0.233333|-78.516667|UIO|0.02470960092757128|
cl:patagonia national park|cl|Patagonia National Park|-46.9543987558279|-72.478380992557|BBA|1.303038356371292|
es:las galletas|es|Las Galletas|28.00813106929442|-16.65571842061712|TCI|0.2846769730572212|
es:spain|es|Spain|0.0|0.0|C130|0.0|
co:guatapé|co|Guatapé|6.234485712319284|-75.16134947436733|CO_0050|0.0032784718671648888|
ec:san cristobal island|ec|San Cristobal Island|-0.82|-89.43|PU5|0.18788294228054808|
cr:san jose|cr|San Jose|9.933333|-84.083333|TMU|0.18819243549622783|
pe:jaén|pe|Jaén |-5.709441|-78.798618|JAE|0.011383110515142356|
py:asunción|py|Asunción|-25.30606980862828|-57.60477866859958|ASU|0.03797316656176025|
co:barranquilla|co|Barranquilla|10.963889|-74.796389|BAQ|0.0053069428110671625|
bz:belize|bz|Belize|17.504722|-88.186667|BZE|0.0062664003223560265|
pe:cuzco/cusco|pe|Cuzco/Cusco|-13525.0|-71.972222|CTF|13451.553593685745|
es:ibiza island|es|Ibiza Island|38.978634|1.420598|IBZ|0.06880956590474632|
za:lesotho|za|Lesotho|-29.6|28.3|LES|0.15723255953522824|
co:medellin|co|Medellin|6.230833|-75.590556|MDE|0.046826413753352704|
ar:mar del plata|ar|Mar del Plata|-38.0|-57.55|MDQ|0.030000000000001137|
mx:monterrey|mx|Monterrey|25.675575438448007|-100.31664177054398|MTY|0.014475075408684335|
es:la gomera island|es|La Gomera, Island|28.103303|-17.219358|GMZ|0.10670173181818654|
es:la palma|es|La Palma|28.683989|-17.764575|GMZ|0.880388467067807|
es:sevilla|es|Sevilla|37.388681389440265|-5.995313277219566|SVQ|0.010862156070727767|
es:santa cruz de tenerife   tenerife norte|es|Santa Cruz de Tenerife - Tenerife Norte|28.46363|-16.251847|SPC|0.29767636135407|
ar:ushuaia|ar|Ushuaia|-54.8|-68.3|USH|0.014142135623733162|
es:el hierro|es|El Hierro|27.725499|-18.024301|GMZ|0.9818109615409704|
es:valencia|es|Valencia|39.4699075|-0.3762881|VLC|0.028107610319272003|
es:cartaya|es|Cartaya|37.28195709537886|-7.151079010183452|FAO|0.8258443908401304|
za:pietermaritzburg|za|Pietermaritzburg|-29.59976740914758|30.37676811218262|PZB|0.016726887659236286|
pa:panama city|pa|Panama City|8.983333|-79.516667|PTY|0.02240240562975549|
za:port elizabeth|za|Port Elizabeth|-33.958056|25.6|PLZ|0.011943999999999733|
pe:tarma|pe|Tarma|-11.419335|-75.688949|JAU|0.4246212368994247|
za:umtata|za|Umtata|-31.590243070541078|28.789797375320802|UTT|0.01024507446874611|
es:asturias|es|Asturias|43.361395|-5.859327|LEN|0.8332396167693933|
es:bilbao|es|Bilbao|43.256944|-2.923611|BIO|0.009436019128846682|
es:palma de mallorca|es|Palma de Mallorca|39.574997872470774|2.6525115966796875|PMI|0.005887293577203725|
ar:puerto libertad|ar|Puerto Libertad|-25.9188997|-54.5830021|IUF|0.26386443106984225|
ar:entre ríos|ar|Entre Ríos|-32.0477|-60281.0|TVU|60101.02057918158|
pa:playa bonita|pa|Playa Bonita|8.898629|-79.57524|A07|0.0077869742583421935|
cr:limon|cr|Limon|9.963116|-83.025276|CHX|0.7276891265038955|
pa:almirante|pa|Almirante|9.297918|-82.421102|CHX|0.1730035338598598|
cr:carate|cr|Carate|8.444881|-83.463021|PJM|0.16138309128161005|
pe:jauja|pe|Jauja|-11.780624|-75.486903|JAU|0.02305688584783432|
es:albacete|es|Albacete|38.994349|-1.858542|ABC|0.012911241807047138|
es:costa del sol|es|Costa del Sol|36.508568|-4.8619621|QRL|0.022799539478024378|
mx:aguascalientes|mx|Aguascalientes|21.878990179023532|-102.29341674785229|AGU|0.0030595236610159713|
cl:antofagasta|cl|Antofagasta|-23.650928|-70.397502|ANF|0.002664805433801357|
pe:arequipa|pe|Arequipa|-16.383333|-71.533333|AQP|0.03681817184489316|
cl:arica|cl|Arica|-18.478253|-70.312599|ARI|0.03136314413447794|
cl:san pedro de atacama|cl|San Pedro de Atacama|-22.908707|-68.199716|SP1|0.0027643995731462647|
gt:atitlan lake|gt|Atitlan lake|14.6906713|-91.20252070000004|ATG|0.48532148987265555|
ar:san carlos de bariloche|ar|San Carlos de Bariloche|-41.13936457644674|-71.31362915039064|BRC|0.3067432530413791|
es:badajoz|es|Badajoz|38.879449|-6.970654|BJZ|0.0011541737304240787|
za:free state|za|Free State|-28.683146068018992|26.28592645776112|BFN|0.440431971882749|
mx:campeche |mx|Campeche (State)|19.06727845880998|-90.81747223265354|UA1|0.7101332424093832|
bo:cochabamba|bo|Cochabamba|-17.38|-66.17|CBB|0.030000000000001137|
es:cuenca|es|Cuenca|40.070392|-2.137416|ABC|1.1029996398548778|
ec:cuenca ecuador|ec|Cuenca Ecuador|-2.9001285|-79.0058965|CUE|0.005897900007635582|
cl:concepción cl|cl|Concepción, CL|-36.828194|-73.051369|CCP|0.002266229688264811|
uy:colonia del sacramento|uy|Colonia del Sacramento|-34.460719|-57.83391|CYR|0.021254140796555517|
pe:chiclayo|pe|Chiclayo|-6.776597|-79.844298|CIX|0.015712002195768873|
pe:cajamarca|pe|Cajamarca|-7.164444|-78.510556|CJA|0.024221855255125584|
cl:calama|cl|Calama|-22.454392|-68.929382|CJC|0.01035913065850776|
co:cali|co|Cali|3.420556|-76.522222|CLO|0.03027154472437721|
cu:camagüey|cu|Camagüey|21.392603|-77.905318|CMW|0.016536430479402377|
ar:san martín de los andes|ar|San Martín de los Andes|-40.15721|-71.352444|CPC|0.0024749214128963006|
ar:córdoba|ar|Córdoba|-31.416667|-64.183333|COR|0.016698981346180152|
es:ciudad real|es|Ciudad Real|38.984829|-3.927378|VDE|0.11538110818067189|
es:caceres‎|es|Caceres‎|39.4752765|-6.3724247|QUQ|0.006668721192256094|
co:cartagena de indias|co|Cartagena de Indias|10.4|-75.5|CTG|0.01440312466098425|
co:cucuta|co|Cucuta|7.9075|-72.504722|CUC|0.01973999199594195|
mx:cancun|mx|Cancun|21.149619289931536|-86.80478630279819|CUN|0.03242073209351138|
mx:cuernavaca|mx|Cuernavaca|18.924209|-99.221566|CVJ|0.018694337030234105|
mx:ensenada|mx|Ensenada|31.861713578881748|-116.62135372601914|ESE|0.008396269950633386|
mx:puerto escondido|mx|Puerto Escondido|15.862386084399816|-97.07082534466312|PXM|0.0058660168643884765|
ec:esmeraldas|ec|Esmeraldas|0.9681789|-79.6517202|AT1|0.2195991403290375|
es:formentera|es|Formentera|38.69603499076058|1.465160766541203|FU1|0.21345585961556332|
gt:tikal|gt|Tikal|17.223437|-89.621633|TKM|0.008478316932040656|
es:fuerteventura island|es|Fuerteventura Island|28.333333|-14.016667|FUE|0.044892813159346484|
mx:guanajuato|mx|Guanajuato|21.019015|-101.257359|GMO|0.02268332219936765|
ec:guayaquil|ec|Guayaquil|-2.183333|-79.883333|DU1|0.011888334309316784|
cl:chiloé|cl|Chiloé|-42.6|-73.95|PMC|1.5222680447279966|
es:huesca|es|Huesca|42.131845|-0.407806|ZAZ|0.6816785588978136|
co:ibagué|co|Ibagué|4.437778|-75.200556|IBE|0.03166388510590577|
ar:puerto iguazú|ar|Puerto Iguazú |-25.628166142364847|-54.554376494140485|IGU|0.10746727327014396|
pe:iquitos|pe|Iquitos|-3.743673|-73.251633|IQT|0.00653434143582937|
es:jaén|es|Jaén|37.779594|-3.784906|GRX|0.6462880113943046|
mx:chihuahua|mx|Chihuahua|28.66524082703519|-106.06965169994963|CUU|0.025401995856713912|
ar:jujuy|ar|Jujuy|-24.185786|-65.299477|JUJ|0.14747678362051164|
cl:viña del mar|cl|Viña del Mar|-33.015348|-71.550028|KNA|0.01775505246401062|
za:durban|za|Durban|-29.85868|31.02184|DUR|0.042314631039393806|
mx:lazaro cardenas|mx|Lazaro Cardenas|17.95587250740398|-102.19242095947266|LZC|0.0021239683812236897|
es:costa de almeria|es|Costa de Almeria|36.8333|-2.4333|LEI|0.004459820624195524|
es:lleida|es|Lleida|41.61759|0.620015|REU|0.6713432760704447|
cl:los ángeles|cl|Los Ángeles|-37.462916|-72.361225|LSQ|0.0031628596238225523|
mx:los mochis|mx|Los Mochis|25.790466|-108.985882|LMM|0.014125688655775157|
es:la manga|es|La Manga|37.73353011630549|-0.736348106607295|MJV|0.4644450632098981|
ec:loja|ec|Loja|-4.0078909|-79.21127690000003|LOH|0.01793640923986933|
mx:loreto|mx|Loreto|26.012778|-111.343333|LTO|0.008383267441748339|
ar:san luis|ar|San Luis|-33.301727|-66.337752|LUQ|0.012369156519342723|
es:cadiz|es|Cadiz|36.527061|-6.288596|CDZ|0.06408961645227679|
ar:mendoza|ar|Mendoza|-32.89068924310892|-68.83942262098383|MDZ|0.023989017118139774|
pe:machu picchu|pe|Machu Picchu|-13.163333|-72.545556|AG1|0.014936297533869864|
cr:monteverde|cr|Monteverde|10.314256|-84.825022|A19|0.24738014071465078|
mx:morelia|mx|Morelia|19.70829156809556|-101.19300334723606|MLM|0.025351662560003152|
ec:manta|ec|Manta|-0.950022|-80.7162|MEC|0.03300182546466316|
co:monteria|co|Monteria|8.75|-75.883333|MTR|0.010034883606704249|
uy:montevideo|uy|Montevideo|-34.883611|-56.181944|MVD|0.02781214944948027|
co:manizales|co|Manizales|5.050201209841063|-75.49077115188713|MZL|0.03082761506480524|
co:neiva|co|Neiva|2.998611|-75.304444|NVA|0.07235066590571261|
za:northern cape|za|Northern Cape|-27.137368359795584|22.17041015625|UTN|1.6228757554563364|
mx:oaxaca|mx|Oaxaca|17.062036080716222|-96.7236328125|OAX|0.05756919922429684|
es:córdoba|es|Córdoba |37.8881751|-4.7793835|ODB|0.012445173050622052|
es:ourense|es|Ourense|42.335789|-7.863881|SCQ|0.8706066966673304|
mx:riviera maya|mx|Riviera Maya|20.556938|-87.206039|PT3|0.05558198597567327|
uy:punta del este|uy|Punta del Este|-34.966667|-54.95|PDP|0.00333299999999781|
pe:piura|pe|Piura|-5.2|-80.633333|PIU|0.010540820129381828|
bz:placencia|bz|Placencia|16.52116|-88.37128|PLJ|0.006392808459513099|
ar:puerto madryn|ar|Puerto Madryn|-42.766667|-65.05|PMY|0.010540820129375648|
cl:puerto natales|cl|Puerto Natales|-51.730894|-72.497741|PNT|0.01880059884684515|
do:puerto plata|do|Puerto Plata|19.8|-70.683333|POP|0.0119664401139201|
mx:puerto peñasco|mx|Puerto Peñasco|31.326822|-113.531184|PPE|0.006064218003999283|
co:pasto|co|Pasto|1.207778|-77.277222|PSO|0.006995324724414302|
mx:puebla|mx|Puebla|19.042898419084807|-98.19639392724905|PBC|0.007964685315831664|
do:punta cana|do|Punta Cana|18.58|-68.41|PUJ|0.004953295511063578|
cl:punta arenas|cl|Punta Arenas|-53.163833|-70.917068|PUQ|0.022961674873577517|
cl:puerto varas|cl|Puerto Varas|-41.3167|-72.9833|PTV|0.014892279879184369|
cr:tortuguero|cr|Tortuguero|10.541667|-83.503333|TTQ|0.001261577583820508|
mx:puerto vallarta|mx|Puerto Vallarta|20.615224819553134|-105.23209574988083|PVR|0.06320646823285112|
mx:queretaro|mx|Queretaro|20.5875|-100.392778|QRO|0.04437935650728084|
ar:rosario|ar|Rosario|-32.95|-60.666667|ROS|0.0011596072610950787|
do:la romana|do|La Romana|18.43|-68.97|LRM|0.013437261625790637|
mx:saltillo|mx|Saltillo|25.426724|-100.995425|SLW|0.011700119700239922|
es:a coruña|es|A Coruña|43.362344|-8.41154|LCG|0.03343210935612821|
es:salamanca|es|Salamanca|40.9701039|-5.6635397|SLM|0.006467082131842406|
co:santa marta|co|Santa Marta|11.221380123161254|-74.10654961290386|SMR|0.09859139011350511|
ec:salinas|ec|Salinas|-2.2068672695965557|-80.966458535695|C20|0.03423724900507576|
es:soria|es|Soria|41.766667|-2.466667|RJL|0.7046875933191954|
bz:ambergris caye|bz|Ambergris Caye|17.957463177298507|-87.95252629518747|SPR|0.041234258252248|
bz:san ignacio|bz|San Ignacio|17.152279|-89.080023|TKM|0.5382125068873802|
mx:tampico|mx|Tampico|22.21355779482083|-97.84586300849725|TAM|0.0897488116636769|
pe:tumbes|pe|Tumbes|-3.566667|-80.45|TBP|0.010540820129374105|
mx:toluca|mx|Toluca|19.2925|-99.656944|TLC|0.04008577223904003|
pe:tacna|pe|Tacna|-18.055556|-70.248333|TCQ|0.05558100417408732|
es:teruel|es|Teruel|40.345688|-1.106434|VLC|1.113477808355427|
bo:tarija|bo|Tarija|-21.53|-64.73|TJA|0.024018534509829423|
es:toledo|es|Toledo|39.8628316|-4.0273231|XTJ|0.011411652473238991|
mx:torreón|mx|Torreón|25.542844|-103.406786|TRC|0.030290251435077267|
pe:tarapoto|pe|Tarapoto|-6.482478|-76.372689|TPP|0.11078407469037278|
pe:trujillo|pe|Trujillo|-8112.0|-79.0288|CTF|8038.55424668243|
ar:tucumán|ar|Tucumán|-26.817993843203773|-65.20895116866774|TUC|0.007904431128842792|
ar:san juan|ar|San Juan|-31.535107|-68.538594|UAQ|0.023823062040810236|
mx:veracruz|mx|Veracruz|19.173773|-96.13422409999998|VER|0.026016086366144393|
mx:villahermosa|mx|Villahermosa|17.991468255933825|-92.91599265341918|VSA|0.01812610328218901|
mx:ciudad victoria|mx|Ciudad Victoria|23.747271410379057|-99.14491869895201|CVM|0.031085324551689317|
es:valladolid|es|Valladolid|41.652251|-4.7245321|VLL|0.02556718465944174|
co:villavicencio|co|Villavicencio|4.15|-73.633333|VVC|0.0036971460614960367|
mx:zacatecas|mx|Zacatecas|22.770925|-102.583254|ZCL|0.003296079641026393|
es:zamora|es|Zamora|41.503471|-5.746788|SLM|0.5385731964970032|
cl:temuco|cl|Temuco|-38.735902|-72.590374|ZCO|0.01193538771888229|
cl:osorno|cl|Osorno|-40.57619|-73.114947|ZOS|0.04547624554643422|
cl:pucon|cl|Pucon|-39.272254|-71.977628|ZPC|0.0059311128803928095|
ar:bahía blanca|ar|Bahía Blanca|-38.71526576615614|-62.29511897661723|BHI|0.038973517628153716|
ar:sarmiento|ar|Sarmiento|-45.597758186566516|-69.05954997986557|CRD|1.5831335207998836|
ar:tehuelches|ar|Tehuelches|-46.96437425545254|-67.49949138611557|CRD|1.0943743736424894|
mx:tulancingo|mx|Tulancingo|20.0719902|-98.36909220000001|PC1|0.37408412000093655|
es:bizkaia|es|Bizkaia|43.26920624914964|-2.9718017578125004|BIO|0.04600290167601365|
py:ciudad del este|py|Ciudad del Este|-25.5085286|-54.675323100000014|AGT|0.059784173085953934|
bz:belmopan|bz|Belmopan|17.2510114|-88.75902009999999|BZE|0.6220586315565061|
za:bloemfontein|za|Bloemfontein|-29.116707791434827|26.218878497358673|BFN|0.011502702191632517|
es:costa del azahar|es|Costa del Azahar|40.094882122321174|0.0439453125|VLC|0.7543498151505723|
mx:ciudad obregón|mx|Ciudad Obregón|27.4827729|-109.93036699999999|CEN|0.017040169700151077|
mx:navojoa|mx|Navojoa|27.072757|-109.443749|XAL|0.511744466164511|
ar:el calafate|ar|El Calafate|-50.333333|-72.283333|FTE|0.1546674466560135|
mx:palenque|mx|Palenque|17.50987276061629|-91.98144710474924|PQM|0.0011169328028766655|
za:knysna|za|Knysna|-34.035086|23.046469|PBZ|0.325607770418646|
es:costa tropical|es|Costa Tropical|36.77519249580649|-3.4497070312500004|GRX|0.41261856201431174|
es:costa de valencia|es|Costa de Valencia|39.38950933076637|-0.24719238281250003|VLC|0.18019055408430107|
es:cantabria|es|Cantabria|43.21658406739874|-3.7920867729808094|SDR|0.16410683143122579|
pa:david|pa|David|8.433333|-82.433333|DAV|4.666904755981115e-05|
es:durango|es|Durango |43.168685|-2.631786|BIO|0.3091014704284008|
mx:testtourico|mx|testtourico|19.4331348|-99.15733369999998|MEX|0.02791608294028644|
cr:liberia|cr|Liberia|10.634596|-85.440675|LIR|0.0074178326349373745|
za:randburg|za|Randburg|-26.095484096497863|27.97290802001953|JNB|0.09387286110921746|
za:centurion|za|Centurion|-25.836639427550097|28.18102598190308|PRY|0.13846430835369636|
za:vereeniging|za|Vereeniging|-26.675590100227165|27.925647664815195|JNB|0.5162468007709444|
za:magaliesburg|za|Magaliesburg|-26.000500706329916|27.54850761964918|HLA|0.3487395229785994|
za:pretoria|za|Pretoria|-25.746111|28.188056|PRY|0.05698095170317661|
za:umhlanga|za|Umhlanga|-29.730358969392178|31.083391048014168|DUR|0.16975840460078515|
es:almeria|es|Almeria|36.840278|-2.468056|LEI|0.03934233877135303|
es:meloneras|es|Meloneras|27.745948671246385|-15.606465339660646|LPA|0.18399694345369058|
cl:la serena|cl|La Serena|-29.902669|-71.251937|LSC|0.0032978068469814107|
za:nelspruit|za|Nelspruit|-25.465833|30.985278|NLP|0.017304836693825296|
za:kimberley|za|Kimberley|-28.73844882736867|24.763545691967014|KIM|0.010554628202969544|
mx:orizaba|mx|Orizaba|18.8504744|-97.10363960000001|OZ1|4.715421508914173e-05|
es:leiro|es|Leiro|42.36884939999999|-8.126346199999944|VGO|0.6217347136318394|
es:baqueira|es|Baqueira|42.699561|0.931314|ALV|0.6182776458169914|
es:solsona|es|Solsona|41.9933358|1.5154640000000654|MNI|0.505573235420741|
es:la seu d´urgell|es|La Seu D´Urgell|42.3575784|1.455552500000067|ALV|0.15491452450561713|
es:los corrales de buelna|es|Los Corrales de Buelna|43.26020603533185|-4.068374633789063|S38|0.13486999397664973|
es:puerto naos la palma|es|Puerto Naos, La Palma|28.586844|-17.9126874|GMZ|0.9403652666994674|
es:puerto de tazacorte isla de la palma|es|Puerto de Tazacorte, Isla de La Palma|28.6436449|-17.9430451|GMZ|0.9966095035619632|
es:costa del silencio   tenerife sur|es|Costa del Silencio - Tenerife Sur|28.005847|-16.645675|TCI|0.28619531171570756|
mx:tijuana|mx|Tijuana|32.504106354003895|-116.96529205019567|TIJ|0.1147814265964545|
es:vilanova i la geltru|es|Vilanova i la Geltru|41.21515|1.727446|MNI|0.411486427714205|
es:lanzarote|es|Lanzarote|29.02615398405301|-13.638839721679688|ACE|0.11608446601608766|
pe:aguas calientes|pe|Aguas Calientes|-13.1547062|-72.52544119999999|AG1|0.007971199509487789|
es:alicante|es|Alicante|38.34865705156157|-0.47790527343750006|ALC|0.006236705651396821|
es:avila|es|Avila|40.65|-4.683333|SL4|0.5389012358650722|
es:mérida|es|Mérida |38.914296|-6.349197|QWX|0.011429979221328804|
es:burgos|es|Burgos|42.35|-3.706667|SDR|1.0347179803642113|
es:comillas|es|Comillas|43.385705|-4.292337|S38|0.18396651052297563|
za:somerset west|za|Somerset West|-34.082450415562505|18.845287039875988|CPT|0.44127722874246683|
za:caledon|za|Caledon|-34.23041433291439|19.428355693817142|CPT|1.0407269538729287|
za:barrydale|za|Barrydale|-33.90441120269326|20.72602459229529|OUH|1.4994887871528308|
es:san sebastian|es|San Sebastian|43.321389|-1.985556|EAS|0.005643337399093683|
es:costa de antigua fuerteventura|es|Costa de Antigua, Fuerteventura|28.4132926|-13.8658593|FUE|0.1955778775830473|
cr:tamarindo|cr|Tamarindo|10.299167|-85.837106|SC1|0.2580268572164615|
es:girona|es|Girona|41.96970131621059|2.8179931640625004|GRO|0.010288890862636952|
es:granada|es|Granada|37.178056|-3.600833|GRX|0.020521769538711238|
mx:guadalajara|mx|Guadalajara|20.666667|-103.35|GDL|0.020275820303993868|
za:hoedspruit|za|Hoedspruit|-24.35960758535081|30.95260620117188|HDS|0.008436163123425837|
es:huelva|es|Huelva|37.25|-6.95|SVQ|0.9755082324239869|
es:playa de talamanca ibiza|es|Playa de Talamanca, Ibiza|38.9156755|1.4526721|IBZ|0.022355872576572906|
cr:manuel antonio|cr|Manuel Antonio|9.375556|-84.135833|XQP|0.05630849514060645|
za:st. lucia|za|St. Lucia|-28.383333|32.416667|HLW|0.3745795746940826|
za:margate|za|Margate|-30.865283816829443|30.370395518839363|MGH|0.02701082418092923|
za:port shepstone|za|Port Shepstone|-30.745450365202263|30.45337267220021|MGH|0.1585641087444613|
es:laredo|es|Laredo|43.40997350705885|-3.41726303100586|SDR|0.3838701278468664|
es:leon|es|Leon |42.605556|-5.57|LEN|0.02555600000000169|
es:logroño|es|Logroño|42.462719|-2.444985|RJL|0.016838883157738346|
es:san agustín gran canaria|es|San Agustín, Gran Canaria|27.76664632824637|-15.55217742919922|LPA|0.15364700748867643|
es:costa de la luz|es|Costa de la Luz|36.8032916|-6.4402174|XRY|0.3257724218120984|
es:tarifa|es|Tarifa|36.014321|-5.60445|GIB|0.255297811860969|
es:ciutadella menorca|es|Ciutadella, Menorca|39.9991163|3.8389047000000573|MAH|0.276012867036609|
es:malaga|es|Malaga|36.721261|-4.4212655|AGP|0.0015306244640668721|
mx:valladolid|mx|Valladolid |20.68964|-88.202249|M13|0.11519961943496088|
es:murcia|es|Murcia|37.986111|-1.130278|MJV|0.006117320083177869|
es:oviedo|es|Oviedo|43.36|-5845.0|TVU|5665.338522993987|
es:vielha|es|Vielha|42.703013|0.793246|ALV|0.751206114648303|
es:sort|es|Sort|42.410312|1.128775|ALV|0.3979630799069184|
es:mallorca (island)|es|Mallorca (island)|39.609920257000795|2.69989013671875|PMI|0.06402139849047869|
es:playa de palma mallorca|es|Playa de Palma, Mallorca|39.52756942118063|2.7283419950189227|PMI|0.08876366949801005|
es:pamplona|es|Pamplona|42.81901410374522|-1.644086837768555|PNA|0.005994787652668075|
cr:puerto viejo de talamanca|cr|Puerto Viejo De Talamanca|9.6540146|-82.75494119999996|CHX|0.31831159858004066|
ar:río negro|ar|Río Negro|-41.15|-71.3|BRC|0.320916364989672|
es:tarragona|es|Tarragona|41.118883|1.244491|REU|0.14200070623063976|
pe:satipo|pe|Satipo|-11.255548|-74.639433|SFK|0.016837026551322933|
es:santiago de compostela|es|Santiago de Compostela|42.8782132|-8.5448445|SCQ|0.0059989477819043565|
es:santander|es|Santander|43.4623057|-3.8099803|SDR|0.08241224994247295|
es:segovia|es|Segovia|40.942903|-4.108807|SL4|0.3517549017180793|
za:skukuza|za|Skukuza|-24.967851977779276|31.58878326416016|SZK|0.021866489977824127|
pa:colon|pa|Colon|9.357222|-79.898611|ONX|0.02485913524240372|
ec:puerto lopez|ec|Puerto Lopez |-1.566667|-80.816667|CO_0633|0.010280981373385078|
ar:santa cruz|ar|Santa Cruz|-48.62|-70.01|FTE|2.9686362013307175|
es:vitoria|es|Vitoria |42.859166|-2.681792|VIT|0.014935421654577218|
es:xativa|es|Xativa|38.989957|-0.523547|VLC|0.5102268447053747|
es:zaragoza|es|Zaragoza|41.65|-0.883333|ZAZ|0.0066669999999999785|
es:muro mallorca|es|Muro, Mallorca|39.73717424208877|3.0592232111893622|PMI|0.44205590636066566|
ar:santa fe|ar|Santa Fe|-31.610658|-60.697294|SFN|0.01511796944037052|
es:costa vasca|es|Costa Vasca|43.367122441110716|-2.0283508300781254|EAS|0.06723681486052234|
es:costa cantábrica|es|Costa Cantábrica |43.4220062741493|-3.4510803222656254|SDR|0.3513797266548206|
es:costa verde|es|Costa Verde|43.49876012743523|-5.229492187500001|LEN|0.9798294454334098|
es:rías altas|es|Rías Altas|43.65793702655821|-7.723388671875001|LCG|0.7699415795110142|
es:rias baixas|es|Rias Baixas|42.435620156499795|-8.865966796875002|VGO|0.2549098306096575|
za:tsitsikamma national park|za|Tsitsikamma National Park|-34.0386034|23.85570919999998|PBZ|0.48431439340182564|
za:roodepoort|za|Roodepoort|-26.156131342431184|27.886433601379398|JNB|0.14423470621057546|
za:boksburg|za|Boksburg|-26.21428301278354|28.260827064514164|JNB|0.23503642044034867|
za:germiston|za|Germiston|-26.230183015695307|28.180575370788578|JNB|0.16215713880769683|
za:sandton|za|Sandton|-26.10920376334051|28.051904607564218|JNB|0.06462193299878369|
za:kleinzee|za|Kleinzee|-29.678153877270425|17.071927953511477|SBU|0.8114528878052614|
za:springbok|za|Springbok|-29.666252035604046|17.882216444704685|SBU|0.0011725033808235468|
za:bellville|za|Bellville|-33.89837366673106|18.62774320878089|CPT|0.19395268191446308|
za:bloubergstrand|za|Bloubergstrand|-33.797292862535315|18.4601587895304|CPT|0.12525975521057267|
za:brenton on sea|za|Brenton-on-Sea|-34.07222205160067|23.024790287017826|PBZ|0.34735873030266234|
za:montagu|za|Montagu|-33.783677386695956|20.122725963592533|CPT|1.6932226029327604|
za:graaff reinet|za|Graaff-Reinet|-32.25325906778486|24.53297512605787|PLZ|2.021321723515117|
za:mkuze|za|Mkuze|-27.61820091697374|32.03238861635327|HLW|0.48503996863429166|
za:paulpietersburg|za|Paulpietersburg|-27.472638198039103|30.830900967121128|VYD|0.29025797893883676|
za:clarens|za|Clarens|-28.513905566260284|28.420445406809453|FCB|0.6481742082448306|
pe:playas del norte|pe|Playas del Norte|-4.142756839003084|-80.750263575855|MCA|0.340067091024256|
pe:selva central|pe|Selva Central|-10.75746595639724|-74.52329975918282|SFK|0.512583860216882|
cr:jacó|cr|Jacó|9.654907854199024|-84.59197998046875|LIO|0.2513485478017145|
cr:puerto jimenez|cr|Puerto Jimenez|8.536108|-83.301265|PJM|0.024619786368084193|
es:costa blanca|es|Costa Blanca|38354.0|-408.0|M01|38154.70129308882|
cr:arenal|cr|Arenal|10.463333|-84.703333|A19|0.21491644371243915|
co:armenia|co|Armenia|4.540726152469631|-75.66928532060119|AXM|0.013449241051435466|
cu:baracoa cuba|cu|Baracoa, Cuba|20.348611|-74.510556|BCA|0.007282866448041335|
do:bayahibe|do|Bayahibe|18.318906|-68.751268|BYE|0.10097082083454059|
co:bucaramanga|co|Bucaramanga|7.119349|-73.12274159999998|BGA|0.01120533317488207|
do:boca chica dominicana|do|Boca Chica, Dominicana|18.452935|-69.606561|AR6|0.002823428058229316|
co:bogota|co|Bogota|4.598889|-74.080833|BOG|0.0035044557352002436|
pa:bocas del toro|pa|Bocas del Toro|9.340556|-82.240556|BOC|0.008648900045673683|
mx:los cabos|mx|Los Cabos|23.046232748080598|-109.70956340740815|SJD|0.01882428771576468|
es:jerez|es|Jerez|36.685006|-6.126074|XRY|0.010136701238568706|
cu:cayo guillermo cuba|cu|Cayo Guillermo, Cuba|22.592791|-78.673912|A08|0.07174509757368742|
cu:cayo coco cuba|cu|Cayo Coco, Cuba|22.514722|-78.511389|CCC|0.10457176604743558|
es:ceuta|es|Ceuta|35.888333|-5.315556|GIB|0.25195327428909725|
mx:chetumal|mx|Chetumal|18.51740644052279|-88.29989761938265|CTM|0.017406741609625492|
cu:cienfuegos cuba|cu|Cienfuegos, Cuba|22.125718680656348|-80.44876098632812|CFG|0.020508046763755075|
mx:chiapas|mx|Chiapas|16.63717224403659|-92.80805968591648|SZT|0.20793294207552177|
mx:colima|mx|Colima|19.2452342|-103.72408680000001|CLQ|0.015772849580213223|
mx:coatzacoalcos|mx|Coatzacoalcos|18.1344779|-94.4589858|QTZ|0.04144972702020329|
cl:curico|cl|Curico|-34.97712676941464|-71.24290466308595|SCL|1.6321097851636466|
es:cuellar|es|Cuellar|41.400924|-4.313588|VLL|0.5024880968938442|
mx:culiacan|mx|Culiacan|24.807619244638573|-107.39796042601026|CUL|0.0286962560801589|
pa:boquete|pa|Boquete|8.78|-82.44|DAV|0.346764732924212|
mx:durango|mx|Durango|24.02514696292903|-104.6697472789187|DGO|0.00595839897231432|
py:encarnación|py|Encarnación|-27.2522918|-55.913586699999996|PSS|0.10928619466396604|
cr:guanacaste|cr|Guanacaste|10.379765224421455|-85.748291015625|SC1|0.20314965849261712|
ec:the galapagos islands|ec|The Galapagos Islands|-0.666667|-90.55|S20|0.2403887615696731|
es:guadalajara|es|Guadalajara |40.632489|-3.16017|BJ1|0.47827785232122155|
mx:hermosillo|mx|Hermosillo|29.097296110327918|-110.95923325578173|HMO|0.005377990052135469|
mx:huatulco|mx|Huatulco|15.726883555835869|-96.31502662836459|HUX|0.17872642050093093|
cl:easter island|cl|Easter Island|-27.116667|-109.366667|IPC|0.017477568307987464|
cl:iquique|cl|Iquique|-20.230703|-70.135669|IQQ|0.020112477967670617|
mx:ixtapa|mx|Ixtapa|17.66564|-101.598292|ZIH|0.004553555094652961|
do:juan dolio dominicana|do|Juan Dolio, Dominicana|18.445342|-69.412904|A12|0.019357587143031204|
mx:leon|mx|Leon|21.1250077|-101.68596049999996|BJX|0.02866570458825219|
es:lugo|es|Lugo|43.009738|-7.556758|LCG|0.9207358465966224|
es:costa brava|es|Costa Brava|42.0228|3.22449|GRO|0.4053933672930649|
za:limpopo (province)|za|Limpopo (province)|-23.8319853|30.135834599999953|LTA|0.03637522884124978|
es:gran canaria (island)|es|Gran Canaria (Island)|27.96879581439811|-15.603316908236597|LPA|0.0740413460900692|
mx:manzanillo|mx|Manzanillo |19.055763520329734|-104.30346165607727|ZLO|0.06754246706977955|
mx:matamoros|mx|Matamoros|25.869029|-97.502738|BRO|0.13706946445142273|
mx:mazatlan|mx|Mazatlan|23.233110941902467|-106.41307510422335|MZT|0.01386423120486289|
pe:mancora|pe|Mancora|-4.1031|-81.0481|MCA|0.039771332367028366|
ec:machachi|ec|Machachi|-0.5107264|-78.5717631|MC1|0.0047049844388709645|
mx:san miguel de allende|mx|San Miguel de Allende|20.914449|-100.745235|SG2|0.0007665676747697847|
es:melilla|es|Melilla|35.3|-2.95|MLN|0.0|
mx:mexicali|mx|Mexicali|32.6245389|-115.45226230000003|MXL|0.03765166151046519|
pe:nazca|pe|Nazca|-14.828889|-74.943611|ICA|1.0910098435128754|
mx:nogales|mx|Nogales|31.279741866692405|-110.93764588330886|NOG|0.026306963536125653|
ar:villa la angostura|ar|Villa La Angostura|-40.7627426|-71.64179839999997|VLA|0.025994354335531274|
za:north west|za|North West|-25.750424835909385|26.553955078125|NTY|0.677096575208409|
es:palencia|es|Palencia|42.016667|-4.533333|VLL|0.4258982011913173|
mx:cozumel|mx|Cozumel|20.44944672819378|-86.88262939453125|CZM|0.09058419954751709|
mx:la paz|mx|La Paz |24.142222|-110.310833|LAP|0.002004613927908464|
pe:paracas|pe|Paracas|-13.837778|-76.251667|PIO|0.1316435192973803|
mx:piedras negras|mx|Piedras Negras|28.67794358420113|-100.58785062427903|DRT|0.7516697069399578|
co:pereira|co|Pereira|4.814278|-75.694558|PEI|0.015065664538938305|
za:phalaborwa|za|Phalaborwa|-23.9424435|31.1409218|PHW|0.0005843350836654084|
cl:puerto montt|cl|Puerto Montt|-41.468917|-72.941136|PMC|0.011188538108254141|
pe:puno|pe|Puno|-15.843333|-70.023611|JUL|0.36252441050224354|
es:costa daurada|es|Costa Daurada|41.011944|0.932222|REU|0.22673919295084563|
do:samaná dominicana|do|Samaná, Dominicana|19.210022196386095|-69.47753906250001|LT1|0.12023105583028583|
za:sun city|za|Sun City|-25.340278|27.090833|NTY|0.008905109376081854|
do:santiago de los caballeros dominicana|do|Santiago de los Caballeros, Dominicana|19.479196|-70.693057|MTZ|0.075057547688423|
es:reinosa|es|Reinosa|42.9995287|-4.139262199999962|S38|0.3906921664335371|
mx:san luis de potosi|mx|San Luis de Potosi|22.1564699|-100.98554089999999|SLP|0.019802251862359448|
ar:salta|ar|Salta|-24.783333|-65.416667|SLA|9.475230868093699e-05|
cu:cayo santa maria cuba|cu|Cayo Santa Maria, Cuba|22.6577|-79.0|ST1|0.02143282792611702|
es:sierra nevada|es|Sierra Nevada|37.05|-3.3|GRX|0.30732718721258706|
cu:santiago de cuba|cu|Santiago de Cuba|20.01693|-75.830154|C07|0.06639590036215717|
es:sitges|es|Sitges|41.237185|1.805886|MNI|0.37442283933809545|
mx:taxco|mx|Taxco|18.556547|-99.605121|TG1|0.020329541313080703|
es:tenerife (canary island)|es|Tenerife (Canary Island)|28.263263279931966|-16.5289306640625|SPC|0.1035289628798044|
gt:antigua guatemala|gt|Antigua Guatemala|14.566667|-90.733333|ATG|4.666904755981115e-05|
cu:trinidad|cu|Trinidad |21.804167|-79.983056|TND|0.0025635570990321693|
bo:sucre|bo|Sucre|-19.05|-65.25|SRE|0.013086252328304616|
cl:valparaiso|cl|Valparaiso|-33.05|-71.616667|VAP|0.004859515305035749|
cu:santa clara|cu|Santa Clara|22.39393236584345|-79.97221470228398|SNU|0.008199275915504914|
es:pontevedra|es|Pontevedra|42.433333|-8.633333|VGO|0.23421246290067368|
cu:varadero|cu|Varadero|23.14777874875676|-81.2593460083008|VRA|0.005407367858602096|
bo:santa cruz de la sierra|bo|Santa Cruz de la Sierra|-17.8|-63.18|SRZ|0.013300000000000978|
mx:xalapa|mx|Xalapa|19.525488177194077|-96.92543983571886|JAL|0.007067415205026679|
es:guardiola de berguedà|es|Guardiola de Berguedà|42235.0|1.881111|M01|42034.5748586947|
cl:ancud|cl|Ancud|-41.8675003|-73.8276965|PMC|0.9817665173616049|
es:barbastro|es|Barbastro|42.0360435|0.12844040000004497|LDE|1.0788162078150445|
es:ascó|es|Ascó|41.182758|0.567157|REU|0.5409102062385214|
es:ansó|es|Ansó|42.7556581|-0.8289608000000044|PUF|0.7141380477976601|
es:montcada i reixac|es|Montcada i Reixac|41.487222|2.187778|BCN|0.10401417676452038|
bo:potosi|bo|Potosi|-19.579846540004144|-65.75729370117189|POI|0.012577347051001022|
co:paipa|co|Paipa|5.780649599211813|-73.1177043914795|RON|0.0008169139208834516|
mx:tuxtla guiterrez|mx|Tuxtla Guiterrez|16.752778|-93.116667|TGZ|0.03344856010353698|
za:stellenbosch|za|Stellenbosch|-33.9321045|18.86015199999997|CPT|0.4253242786677318|
es:esplugues del llobregat|es|Esplugues del Llobregat|41.3766912|2.085811499999977|BCN|0.09781202160110163|
es:granollers|es|Granollers|41.616667|2.3|BCN|0.26087490620793824|
za:port edward|za|Port Edward|-31.0509031|30.22242270000004|MGH|0.2261463975642554|
es:monforte de lemos|es|Monforte de Lemos|42.519022|-7.515806|SCQ|1.0879499001884227|
es:palafolls|es|Palafolls|41.66906501728199|2.7507019042968754|CE5|0.09736714911127728|
es:parla|es|Parla|40.232367|-3.7689060000000154|MAD|0.18818102647451204|
es:alcala de henares|es|Alcala de Henares|40.4819791|-3.3635421|BJ1|0.24674885067456717|
es:santo estevo de ribas de sil|es|Santo Estevo de Ribas de Sil|42.466589|-7.28788|OVD|0.8996968096647894|
uy:la paloma|uy|La Paloma|-34.652132475112666|-54.17804718017579|PDP|0.8348358637555982|
mx:jalpan de serra|mx|Jalpan de Serra|21.2190312|-99.47143519999997|OT2|0.7600362753266753|
es:écija|es|Écija|37.541466|-5.082674|ODB|0.4608365213739055|
es:los realejos  tenerife norte|es|Los Realejos -Tenerife Norte|28.385473|-16.584196|PCZ|0.03426497256674617|
es:garachico  tenerife norte|es|Garachico -Tenerife Norte|28.373247|-16.76401|TCI|0.15768534489624939|
es:puerto de sagunto|es|Puerto de Sagunto|39.6644972|-0.2268113000000085|VLC|0.24942648338844678|
pa:chiriquí|pa|Chiriquí|8.35282301503959|-82.27111816406251|DAV|0.18105107847337545|
es:almansa|es|Almansa|38.87232480120915|-1.1006927490234377|ABC|0.7798790277412729|
co:la guajira|co|La Guajira|12.136005232925378|-71.64184570312501|CO_9001|0.5262537873268568|
mx:barra vieja|mx|Barra vieja|16.6913888|-99.62666660000002|ACA|0.3299565564146084|
es:arrecife lanzarote|es|Arrecife, Lanzarote|28.965169|-13.555036|ACE|0.017656620769557464|
es:costa teguise lanzarote|es|Costa Teguise, Lanzarote|28.998114|-13.492963|ACE|0.053460093200443384|
es:calaceite|es|Calaceite|41.0158479|0.18763850000004823|REU|0.9303632664699164|
mx:calvillo|mx|Calvillo|21.8468345|-102.71864540000001|AGU|0.4294894149003179|
es:altea|es|Altea|38.6029075|-0.045066600000041035|ALC|0.5056364390268713|
es:ordesa|es|Ordesa|42.64687|0.0349|LDE|0.46101497470255937|
co:salento|co|Salento |4.638536641585489|-75.56911468505861|CIR|0.075295995856739|
pe:urubamba|pe|Urubamba|-13.304167|-72.116667|CUZ|0.26388999218993137|
es:badalona|es|Badalona|41.4469883|2.2450324999999793|BCN|0.08862710992206509|
es:sant cugat del valles|es|Sant Cugat del Valles |41.4720702|2.086515400000053|BCN|0.13140309785233192|
es:cerdanyola del valles|es|Cerdanyola del valles|41.4900419|2.139674799999966|BCN|0.11535045006697447|
es:mollet del valles|es|Mollet del Valles|41.542551|2.211369800000057|BCN|0.16168856086020644|
mx:el fuerte|mx|El fuerte|26.417632|-108.61459379999997|FR1|0.00607361691584306|
es:villanueva de la serena|es|Villanueva de la Serena|38.97248886464377|-5.8002662658691415|QWX|0.5411251902916825|
es:zafra|es|Zafra|38.42253|-6.415723|QWX|0.4956024068030715|
mx:todos santos|mx|Todos Santos|23.4463619|-110.22651009999998|A06|0.6404071217855162|
es:arcos de la frontera|es|Arcos de la Frontera|36.756004|-5.811652|XRY|0.3318091480354324|
mx:ciudad del carmen|mx|Ciudad del Carmen|18.6504879|-91.80745860000002|CME|0.017341479186314845|
mx:xpujil|mx|Xpujil|18.501749774475105|-89.39575195312501|M03|0.5940111488158236|
mx:champoton|mx|Champoton|19.37204517690727|-90.68389892578126|UA1|0.38715700551589954|
mx:calakmul|mx|Calakmul|18.0383007|-89.6738919|TKM|0.8155546621570496|
es:oropesa del mar|es|Oropesa del Mar|40.09141|0.142478|VLC|0.8136433300802046|
es:benicarló|es|Benicarló|40.414089975726625|0.4267708280904685|REU|1.0067463343696479|
es:belmonte|es|Belmonte |39.561235736324825|-2.6916503906250004|OC1|0.9011491783019465|
es:cercs|es|Cercs|42.1468742|1.8601862000000438|ALV|0.4927656995937427|
ar:el chaltén|ar|El Chaltén|-49.3314941|-72.886325|FTE|1.0929494651350322|
mx:bacalar|mx|Bacalar|18.6782919|-88.39239459999999|BC2|0.002950453316019442|
mx:mahahual|mx|Mahahual|18.7138888|-87.7094444|M09|0.052331507642821705|
mx:tapachula|mx|Tapachula|14.9055567|-92.26341359999998|TAP|0.00861728378610261|
mx:san cristóbal de las casas|mx|San Cristóbal de las Casas|16.7370359|-92.6376186|SZT|0.013633212195592359|
mx:ciudad juarez|mx|Ciudad Juarez|31.715225565502067|-106.44713426437019|CJS|0.049535643667783|
mx:comitán|mx|Comitán|16.245251254451233|-92.13157602304108|SZT|0.7117574024791858|
mx:córdoba|mx|Córdoba |18.8838909|-96.9237751|OZ1|0.18289873390163197|
mx:huatusco|mx|Huatusco|19.1482351|-96.96654760000001|JV3|0.2744658368135716|
za:swellendam|za|Swellendam|-34.0257083|20.43812539999999|OUH|1.8076837397105971|
es:puertollano|es|Puertollano|38.688446|-4.107888|VDE|0.2837739605037777|
es:almagro|es|Almagro|38.8884312|-3.7117805999999973|VDE|0.33772842715679324|
es:manzanares|es|Manzanares|39.004284|-3.371644|VDE|0.6704553084225673|
es:valdepeñas|es|Valdepeñas|38.760524|-3.387607399999979|VDE|0.6843063160535549|
es:brozas|es|Brozas|39.61150721981573|-6.780967712402344|QUQ|0.4278697683947796|
es:villanueva de la vera   cáceres|es|Villanueva De La Vera - Cáceres|40.1298542|-5.462709700000005|SLM|0.8657288896483296|
es:guadalupe|es|Guadalupe |39.451321|-5.327243|QUQ|1.0464038995961356|
es:jarandilla|es|Jarandilla|40.1069025599876|-5.633231940446422|SLM|0.8642798847082439|
pa:chitre|pa|Chitre|7.962337459144956|-80.42404174804689|A07|1.2590191392919452|
co:baru|co|Baru|10.142841|-75.68482399999999|IBU|0.0884358843402295|
mx:tlaltizapan|mx|Tlaltizapan|18.6891866|-99.1207129|GG2|0.2571095669438427|
mx:oaxtepec|mx|Oaxtepec|18.9070579|-98.97026590000002|CVJ|0.2700993618563526|
es:irun|es|Irun|43.3381465|-1.7888494999999693|EAS|0.19197252905692458|
mx:nuevo san felipe|mx|Nuevo San Felipe|31.0175515|-114.8456208|SFH|0.007662694362293625|
mx:tecate|mx|Tecate|32.5685837|-116.6346969|TCT|0.010124326530678265|
mx:abasolo|mx|Abasolo|20.452319|-101.52650169999998|IP1|0.21928829851109286|
es:playa de esquinzo fuerteventura|es|Playa de Esquinzo, Fuerteventura|28.079003|-14.30121|FUE|0.37353431494892153|
mx:atarjea|mx|Atarjea|21.2679767|-99.71873870000002|SG3|0.7168323189146577|
es:getaria|es|Getaria|43.3|-2.2|EAS|0.2209437937575984|
mx:san juan de los lagos|mx|San Juan De Los Lagos|21.2474689|-102.33169989999999|LOM|0.4200891155543141|
mx:tequila|mx|Tequila|20.882778|-103.836667|TQ2|0.23637270548437148|
mx:chapala|mx|Chapala|20.3051576|-103.18460160000001|GDL|0.3927475926855793|
mx:teuchitlan|mx|Teuchitlan|20.685614|-103.8477335|M06|0.3737217151198044|
mx:tepatitlan|mx|Tepatitlan|20.8098057|-102.76523259999999|M21|0.03912944446641747|
mx:tapalpa|mx|Tapalpa|19.9476711|-103.76077829999997|M02|0.7080142312773698|
mx:apaseo el grande|mx|Apaseo el Grande|20.5446948|-100.6844284|CL1|0.11650206810867735|
mx:irapuato|mx|Irapuato|20.6786652|-101.35449640000002|SL2|0.11663255137864348|
mx:guaymas|mx|Guaymas|27.92928682214483|-110.90017375671256|GYM|0.010198722875903782|
gt:chichicastenango|gt|Chichicastenango|14.930189148183592|-91.11373901367189|ATG|0.5261731691856519|
mx:hidalgo del parral|mx|Hidalgo Del Parral|26.9317835|-105.6666166|MAM|0.188205082098784|
es:santa eulàlia des riu ibiza|es|Santa Eulàlia des Riu, Ibiza|38.99170418065391|1.5460681915283205|IBZ|0.14086021602796828|
es:platja den bossa ibiza|es|Platja d'en Bossa, Ibiza|38.8844854|1.40422030000002|FU1|0.026209124048875827|
cl:talca|cl|Talca|-35.42906429359501|-71.66004180908205|CCP|1.9734752661182111|
mx:zihuatanejo|mx|Zihuatanejo|17.6416693|-101.5516955|M07|0.02597447978497619|
gt:izabal|gt|Izabal|15.464269084198357|-89.16503906250001|LCF|0.3899577410388034|
es:úbeda|es|Úbeda|38.011424|-3.371246|GRX|0.8729973426603302|
za:eshowe|za|Eshowe|-28.888965086743664|31.461271215230234|RCB|0.6035101003477423|
za:hluhluwe national park|za|Hluhluwe National Park|-28.2198305|31.95186519999993|HLW|0.380319147665924|
za:underberg|za|Underberg|-29.7943248768094|29.487220197916034|PZB|0.921404922529485|
es:carboneras|es|Carboneras|36.9991171|-1.8921411000000035|LEI|0.563729908344072|
es:vilafranca del bierzo|es|Vilafranca del Bierzo|42.608394|-6.808554|OVD|0.6414308684121752|
es:vilalba|es|Vilalba|43.29749|-7.680772|LCG|0.7399425221488487|
es:liria|es|Liria|39.62575070037897|-0.5927447520310238|VLC|0.23866566383263502|
es:costa maresme|es|Costa Maresme|41.41801503608024|2.1066284179687504|BCN|0.08425562021392653|
es:l estartit|es|L Estartit|42.0512834|3.1905192000000397|GRO|0.3760274542161518|
pe:pucallpa|pe|Pucallpa|-8.3928622|-74.5826166|PCL|0.05330598113157449|
za:tzaneen|za|Tzaneen|-23.83286291862705|30.160254836082462|LTA|0.016538918163315555|
es:calahorra|es|Calahorra|42.307355|-1.967313|RJL|0.49057408410351133|
es:playa taurito las palmas de gran canaria|es|Playa Taurito, Las Palmas de Gran Canaria|27.79838774500281|-15.728645324707033|LPA|0.21835634936696208|
es:patalavaca   las palmas de gran canaria|es|Patalavaca - Las Palmas de Gran Canaria|27.770546|-15.687583|LPA|0.20504434489673168|
es:el rompido|es|El Rompido|37.220694|-7.123824|FAO|0.8346867145294701|
es:barbate|es|Barbate|36.19002|-5.92248|TNG|0.4517316092548704|
es:algeciras|es|Algeciras|36.140759|-5.456233|GIB|0.0785788684698382|
es:sanlúcar de barrameda|es|Sanlúcar de Barrameda|36.772577|-6.352969|XRY|0.2333268374833879|
es:getafe|es|Getafe|40.3082504|-3.732393399999978|MAD|0.10401126065824734|
es:las rozas|es|Las Rozas|40.4935329|-3.875791599999957|MAD|0.21392272233905726|
es:alcobendas|es|Alcobendas|40.5372512|-3.637224500000002|BJ1|0.07255272084277942|
es:torrejon de ardoz|es|Torrejon de Ardoz|40.45873892020137|-3.482963510020994|BJ1|0.1275346294322335|
es:fuenlabrada|es|Fuenlabrada|40.2902056|-3.8035476999999673|MAD|0.16275834874636033|
es:pinto|es|Pinto|40.2375052|-3.696771799999965|MAD|0.16304405865372174|
es:sant lluismenorca|es|Sant Lluis,Menorca|39.8506817|4.257691600000044|MAH|0.17740377524140225|
es:cala en forcat menorca|es|Cala en Forcat, Menorca|39.994834|3.800167|MAH|0.3135536547012328|
mx:cuyutlan|mx|Cuyutlan|18.9126084|-104.06020799999999|ZLO|0.34291286166979645|
mx:rio lagartos|mx|Rio Lagartos|21.595554|-88.15658380000002|IH1|0.7632838057656395|
es:lorca|es|Lorca|37.673592|-1.696836|MJV|0.6443515448573074|
za:mpumalanga|za|Mpumalanga|-29.8039699|30.631494799999928|PZB|0.30974838261565535|
za:vryburg|za|Vryburg|-26.95675118587516|24.729655981063843|MBD|1.4298859487902333|
es:mijas|es|Mijas|36.61632301947828|-4.662319095223212|UTL|0.08872907394939893|
za:mafikeng|za|Mafikeng|-25.855978|25.64031|MBD|0.03991932594621445|
za:rustenburg|za|Rustenburg|-25.6544483|27.255854|NTY|0.34645797154761676|
za:klerksdorp|za|Klerksdorp|-26.8598225|26.631751399999985|WEL|1.114516428280988|
es:ondarroa|es|Ondarroa|43.321339|-2.425195|EAS|0.44519599026271567|
es:avilés|es|Avilés|43.557952|-5.924665|LEN|1.040277547834713|
mx:pachuca de soto|mx|Pachuca de Soto|20.1010608|-98.75913109999999|PC1|0.07521001026359092|
mx:tula de allende|mx|Tula de Allende|20.0535516|-99.33956360000002|TZ9|0.351902904772785|
cu:viñales cuba|cu|Viñales, Cuba|22.615278|-83.715833|ACN|0.06828277922909937|
es:la molina|es|La Molina|42.337605|1.934988100000055|ALV|0.44889244353926805|
es:pallars|es|Pallars|42.4103118|1.1287747000000081|ALV|0.3979634172625962|
es:north mallorca|es|North Mallorca|39.839122664473194|3.0068206787109375|PMI|0.44704454239431785|
es:east mallorca|es|East Mallorca|39.57076365997469|3.3144378662109375|PMI|0.6642785845654315|
es:sometimes dont use|es|Sometimes DON'T USE|39.530161643292686|2.7328491210937504|PMI|0.0916125785700538|
es:olite|es|Olite|42.483729|-1.657337|PNA|0.3363510324200037|
co:popayan|co|Popayan|2.4448143|-76.61473949999998|PPN|0.025262864935312927|
za:humansdorp|za|Humansdorp |-34.03034486867974|24.770382642745975|PLZ|0.8318091503663144|
za:east london|za|East London|-33.0291582|27.854586700000027|ELS|0.061133153395919765|
za:port alfred|za|Port Alfred|-33.59903566203337|26.89753666520119|BIY|0.8797801615390101|
za:addo elephant national park|za|Addo Elephant National Park|-33.4833333|25.75|PLZ|0.5092587523930151|
za:ibhayi|za|iBhayi |-33.879822043557276|25.59728890657425|PLZ|0.09021870014442016|
pa:gamboa|pa|Gamboa|9.117944620544518|-79.69868659973145|PTY|0.22346238735144533|
cr:cahuita|cr|Cahuita|9.7347856|-82.84521459999996|CHX|0.4394441668067679|
mx:poza rica de hidalgo|mx|Poza Rica de Hidalgo|20.5270592|-97.4629119|PAZ|0.024393320935248795|
mx:san juan del rio|mx|San Juan Del Rio|20.37573669131021|-99.99259880057599|SQ2|0.008541285260333977|
mx:conca|mx|Conca|21.4425235479517|-99.63123321533203|CV1|0.8139330316626582|
mx:tequisquiapan|mx|Tequisquiapan|20.5187326|-99.88505859999998|TQ1|0.009257471399922447|
mx:reynosa|mx|Reynosa|26.068502530912397|-98.29055786132814|REX|0.014877693978535037|
es:la pineda|es|La Pineda|41.082327245051516|1.1733055114746096|REU|0.09877492957952402|
es:cambrils|es|Cambrils|41.0666754|1.0603605999999672|REU|0.10086493145550306|
es:portaventura|es|PortAventura|41.0777581|1.1315203000000338|REU|0.08177985942579331|
es:tortosa|es|Tortosa|40.812578|0.521442|REU|0.6791294231941364|
es:arteixo|es|Arteixo|43.3038683|-8.510297400000013|LCG|0.09400258609023694|
ec:isla santa cruz|ec|Isla Santa Cruz|-0.5602938041720732|-90.34881591796876|S20|0.02701976154478271|
es:arenas de iguña|es|Arenas de Iguña|43.187655782154806|-4.054641723632813|S38|0.20839732804828573|
es:santillana del mar|es|Santillana del Mar|43.387333|-4.106609|S38|0.002446746819761985|
co:san gilcolombia|co|San Gil,Colombia|6.554824|-73.13412|SGL|0.0013445356075587904|
es:béjar|es|Béjar|40.3871165|-5.764217199999962|SLM|0.5908439067537916|
ar:cafayate|ar|Cafayate|-26.067876691697677|-65.98513833778026|AR_015|0.9786565067085081|
ar:san miguel de tucumán|ar|San Miguel de Tucumán|-26.822057829136092|-65.20365856085262|TUC|0.014289091680282487|
ar:san salvador de jujuy|ar|San Salvador de Jujuy|-24.178875774761806|-65.3001442194517|JUJ|0.1478914482678017|
mx:valle de bravo|mx|Valle de Bravo|19.1950964|-100.13267250000001|VM2|0.0013758812485258906|
mx:ixtapan de la sal|mx|Ixtapan de la sal|18.8376097|-99.675904|TG1|0.2729950200829513|
es:cantavieja|es|Cantavieja|40.5|-0.4|VLC|1.0150000000000006|
es:rubielos de mora|es|Rubielos de Mora|40.183333|-0.65|VLC|0.7417337655041716|
es:alcañiz|es|Alcañiz|41.051035|-0.133537|ZAZ|0.964880998669784|
es:güimar   tenerife sur|es|Güimar - Tenerife Sur|28.3106065|-16.41257840000003|SPC|0.1331171869023807|
es:playa paraiso   tenerife sur|es|Playa Paraiso - Tenerife Sur|28.120968|-16.767092|TCI|0.2193998539950519|
es:playa de las américas   tenerife sur|es|Playa de las Américas - Tenerife Sur|28.057143|-16.729709|TCI|0.2550864938926604|
es:puerto santiago   tenerife sur|es|Puerto Santiago - Tenerife Sur|28.236196|-16.841127|TCI|0.21910760054103504|
ar:tigre buenos aires|ar|Tigre, Buenos Aires|-34.4199759099308|-58.58159647482782|BUE|0.2592422718223617|
cr:peninsula de osa|cr|Peninsula de Osa|8.619041018922134|-83.47961425781251|PJM|0.1804866025925439|
cr:dominical|cr|Dominical|9.29120817586746|-83.83735656738283|XQP|0.35356599300180386|
cr:uvita|cr|Uvita|9.169890224453907|-83.73847961425783|XQP|0.4964463090965601|
cr:golfito|cr|Golfito|8.637370630297879|-83.16650390625001|PJM|0.19237566855527582|
cr:perez zeledon|cr|Perez Zeledon|9.368450258514065|-83.7151336669922|XQP|0.45343268308873674|
es:carranque|es|Carranque|40.1705846|-3.8999013000000105|MAD|0.3154429245661644|
mx:tepic|mx|Tepic|21.5041651|-104.89458869999999|TPQ|0.014640872436426571|
es:tarancón|es|Tarancón|40.009452101967526|-3.0078721364807564|OC1|0.49547098402700385|
mx:cuauhtemoc|mx|Cuauhtemoc|28.406359|-106.86540660000003|CUU|0.816078420376752|
es:baiona|es|Baiona|42.120153|-8.852367|VGO|0.157933866216208|
es:cambados|es|Cambados|42.513737|-8.814517|VGO|0.3056542956642358|
es:tui|es|Tui|42.049155|-8.64661|VGO|0.19011024729088094|
ar:villa gesell|ar|Villa Gesell|-37.25102168995457|-56.96455064978345|VGL|0.027192361357514076|
mx:paraiso|mx|Paraiso|18.356480657859535|-93.2183074951172|M11|0.043918798437355515|
mx:tuxpan|mx|Tuxpan|20.9561149|-97.40633509999998|M22|0.04470202700014391|
cu:matanzas cuba|cu|Matanzas, Cuba|23.051111|-81.575278|VRO|0.009864512405588364|
mx:tenacatita|mx|Tenacatita|19.2836735|-104.87441109999997|ZLO|0.5628116836770782|
mx:careyes|mx|Careyes|19.4432449|-105.02944150000002|ZLO|0.7660346085865044|
mx:comonfort|mx|Comonfort|20.7197856|-100.75968920000003|CL1|0.19401941800757444|
mx:cueramaro|mx|Cueramaro|20.6258385|-101.67177650000002|IP1|0.17736235235953385|
mx:doctor mora|mx|Doctor Mora|21.1430821|-100.31854279999999|SG3|0.15606523941048697|
mx:dolores hidalgo|mx|Dolores Hidalgo|21.151597|-100.9367183|SG2|0.30436144099391|
mx:ocampo|mx|Ocampo|21.6481453|-101.47827990000002|LOM|0.5302768148958518|
mx:penjamo|mx|Penjamo|20.4313532|-101.72405800000001|IP1|0.32734428743182126|
mx:barra de navidad|mx|Barra de navidad|19.2081099|-104.6826949|ZLO|0.35751549827947|
es:puerto del carmen lanzarote|es|Puerto del Carmen, Lanzarote|28.918626196588374|-13.64982604980469|ACE|0.12283059840689473|
es:playa blanca lanzarote|es|Playa Blanca, Lanzarote|28.8626247|-13.8319238|ACE|0.31276910681288467|
es:torremolinos|es|Torremolinos|36.622554|-4.499477|UTL|0.0744658635737215|
es:benalmadena|es|Benalmadena|36.59254350785544|-4.572775442353418|UTL|0.03153425085242972|
es:fuengirola|es|Fuengirola|36.54|-4.63|UTL|0.10104272186644409|
es:marbella|es|Marbella|36.510071|-4.882447|QRL|0.006584485553170686|
es:nerja|es|Nerja|36.74988847598359|-3.8843536376953125|GRX|0.5117911466337056|
es:estepona|es|Estepona|36.43012234551579|-5.158081054687501|QRL|0.28806772248946066|
es:torrevieja|es|Torrevieja|38.03991822343685|-0.7415693427901717|YJE|0.3861733880229027|
es:santa pola|es|Santa Pola|38.1965614|-0.5612438000000566|YJE|0.1586082105354478|
es:javea|es|Javea|38.789011|0.166081|ALC|0.7834308351616006|
es:denia|es|Denia|38.838799|0.105056|ALC|0.7643746928941347|
es:calpe|es|Calpe|38.645612032803115|0.04691916812407726|ALC|0.6067363783442741|
es:jaca|es|Jaca|42.57171659999999|-0.5470553999999765|LDE|0.7253602011309354|
es:ainsa|es|Ainsa|42.4167|0.1333|LDE|0.7074586772384686|
es:alquézar|es|Alquézar|42.173889|-0.027222|LDE|0.9263910737938906|
es:san juan de gredos|es|San Juan de Gredos|40.433333|-5.2|SLM|0.7136812751424828|
es:anento|es|Anento|41.0698209|-1.3339683000000377|ZAZ|0.7305584435770542|
es:hospitalet de llobregat|es|Hospitalet de Llobregat|41.3568606|2.110661700000037|BCN|0.07739445819465789|
es:la garriga|es|La Garriga|41.68038|2.28334|BCN|0.3134398347370683|
es:barbera del valles|es|Barbera del Valles|41.5136208|2.1255552999999736|BCN|0.14258162655381995|
es:terrasa|es|Terrasa|41.561111|2.008056|MNI|0.17046810111572214|
es:manresa|es|Manresa|41.729444|1.827222|MNI|0.1211035398533033|
es:benidorm|es|Benidorm|38.535917|-0.124128|ALC|0.40415404102025215|
es:portugalete|es|Portugalete|43.318248|-3.021197|BIO|0.11390646299925014|
es:don benito|es|Don Benito|38.955419|-5.862037|QWX|0.4779393130199692|
es:aranda de duero|es|Aranda de Duero|41.67|-3.69|VLL|1.0601886624558858|
mx:san jose del cabo|mx|San Jose del Cabo|23.0636562|-109.7024376|SJD|0.0|
mx:corredor|mx|Corredor|25.5423573|-100.93902539999999|SLW|0.13901063523504198|
es:castellón de la plana|es|Castellón de la Plana|39.986356|-0.051325|VLC|0.610681663684936|
es:benicassim|es|Benicassim|40.055385|0.06415|VLC|0.7353735586251399|
es:vinaros|es|Vinaros|40.48166895461287|0.4458823386964923|REU|0.9445597486555766|
es:cala morell|es|Cala Morell|40.05338800000001|3.8829557999999906|MAH|0.2500345635213405|
es:coca|es|Coca|41.2157967|-4.522055300000034|VLL|0.4903991149961068|
za:franschoek|za|Franschoek|-33.90929969066996|19.11881804466248|CPT|0.683901758168362|
za:tulbagh|za|Tulbagh |-33.284978720990374|19.14037294685841|CPT|0.9491064318372003|
za:wellington south africa|za|Wellington, South Africa|-33.64329510010791|19.011315107345585|CPT|0.6393001678234137|
za:paternoster|za|Paternoster|-32.809604232634165|17.891557551920418|SDB|0.24724518323965042|
za:velddrif|za|Velddrif|-32.786029814565275|18.180602788925174|SDB|0.43381699345072183|
za:worcester|za|Worcester|-33.646706974926694|19.44696016609669|CPT|1.048213935854778|
es:trujillo|es|Trujillo|39.465278|-5.878889|QUQ|0.4945903917435112|
es:plasencia|es|Plasencia|40.033333|-6.1|QUQ|0.6153995397211437|
es:guadalupe-4|es|Guadalupe|39.451321|-5.327243|QUQ|1.0464038995961356|
cr:coco beach|cr|Coco Beach|11.042054083616733|-85.72988738787721|SJN|0.2679571108580397|
es:almuñécar|es|Almuñécar|36.734473|-3.68902|GRX|0.44291495586511664|
mx:isla mujeres|mx|Isla Mujeres|21.2366946|-86.73576789999998|ISJ|0.037276203663586145|
es:castro urdiales|es|Castro Urdiales|43.37407922223149|-3.214960098266602|BIO|0.31080204470640477|
es:gandía|es|Gandía|38.95133870641585|-0.21147901075892153|VLC|0.5659810417799754|
es:el saler|es|El Saler|39.38778|-0.3273470000000316|VLC|0.12136798098755466|
es:deba|es|Deba|43.295137|-2.354808|EAS|0.3756584300039066|
es:zarautz|es|Zarautz|43.282442|-2.167129|EAS|0.19093997068450533|
es:es migjorn gran|es|Es Migjorn Gran|39.9472227|4.049375899999973|MAH|0.06111637748593533|
es:ferreries|es|Ferreries|39.9831611|4.012722899999972|MAH|0.10331510602891271|
es:corralejo fuerteventura|es|Corralejo, Fuerteventura|28.731539|-13.86878|ACE|0.407351797493271|
es:caleta de fuste fuerteventura|es|Caleta de Fuste, Fuerteventura|28.384278|-13.869756|FUE|0.18568406496885895|
es:jandia fuerteventura|es|Jandia, Fuerteventura|28.088337452789183|-14.39414978027344|FUE|0.434789465722302|
es:tarajalejo fuerteventura|es|Tarajalejo, Fuerteventura|28.1984636|-14.121914500000003|FUE|0.1742015249136772|
es:playa esquinzo fuerteventura|es|Playa Esquinzo, Fuerteventura|28.0760902|-14.305013599999938|FUE|0.37823740389508|
cr:rincon de la vieja|cr|Rincon de la Vieja|10.803293315026787|-85.33493041992188|LIR|0.19597080936587605|
mx:zapopan|mx|Zapopan|20.6719563|-103.41650099999998|M06|0.05855591592019265|
mx:mazamitla|mx|Mazamitla|19.9165757|-103.0212924|MZ1|0.041633104948466254|
mx:silao|mx|Silao|20.952141|-101.4282369|SL1|0.008630098644280089|
mx:salamanca|mx|Salamanca |20.5739314|-101.19571719999999|SL2|0.12724092808641027|
mx:celaya|mx|Celaya|20.5279612|-100.81128849999999|CL1|0.011471134978275902|
cl:castro|cl|Castro|-42.4801402|-73.76241370000002|PMC|1.3089292538574282|
es:sant antoni de portmany ibiza|es|Sant Antoni de Portmany, Ibiza|38.9826357|1.3015192000000297|FU1|0.14238078160118|
es:es canar ibiza|es|Es canar, Ibiza|39.0020395|1.5754739999999856|IBZ|0.17106379990005427|
es:portinatx ibiza|es|Portinatx, Ibiza|39.110611075415164|1.5169953008440302|IBZ|0.21775406107844167|
es:port san miguel ibiza|es|Port San Miguel, Ibiza|39.05571756241876|1.4374065399169922|IBZ|0.14526335389234418|
es:santa elena|es|Santa Elena|38.34247080000001|-3.539284500000008|VDE|0.7988524945025016|
za:midrand|za|Midrand|-25.99980641023136|28.126405477523807|JNB|0.19560131414417783|
za:empangeni|za|Empangeni|-28.75622240445744|31.912198662757877|RCB|0.1430922758727701|
za:scottburgh|za|Scottburgh|-30.286531028235295|30.755774974823|DUR|0.4774570867426016|
es:mojácar|es|Mojácar|37.140279|-1.850733|LEI|0.6569910484397784|
es:roquetas de mar|es|Roquetas de Mar|36.763682|-2.615427|LEI|0.19703078503878446|
es:ponferrada|es|Ponferrada|42.549996|-6.598259|OVD|0.5097551352335752|
es:ribadeo|es|Ribadeo|43.533333|-7.033333|LCG|1.4014955147191874|
es:malgrat de mar|es|Malgrat de Mar|41.6455042|2.7438793000000032|CE5|0.08089833685639172|
es:santa susana|es|Santa Susana|41.6454841|2.7028431|CE5|0.04453531868550759|
es:calella|es|Calella|41.6134346|2.653555200000028|CE5|0.014958516109535924|
es:llafranc|es|Llafranc|41.894734|3.193595|GRO|0.3816777214459991|
es:roses|es|Roses|42.263177|3.178187|GRO|0.4558587803965291|
es:lloret de mar|es|Lloret de Mar|41.700599|2.839819|CE5|0.19082225017538976|
es:mazarrón|es|Mazarrón|37.564007|-1.266238|MJV|0.43773390169485416|
za:louis trichardt|za|Louis Trichardt|-23.004540067371902|29.945645928382874|LTA|0.8452777302404101|
es:las palmas de gran canaria|es|Las Palmas de Gran Canaria|28.1310776|-15.4392611|LPA|0.23698720088055591|
es:playa del inglés las palmas de gran canaria|es|Playa del Inglés, Las Palmas de Gran Canaria|27.760115|-15.573817899999995|LPA|0.16226401672397917|
es:maspalomas   las palmas de gran canaria|es|Maspalomas - Las Palmas de Gran Canaria|27.760562|-15.586017|LPA|0.16425326200514156|
es:puerto rico   las palmas de gran canaria|es|Puerto Rico - Las Palmas de Gran Canaria|27.7880169|-15.710865499999954|LPA|0.2102058255284927|
es:isla canela|es|Isla Canela|37.19899908201069|-7.39226949956884|FAO|0.5707900475946668|
es:isla cristina|es|Isla Cristina|37.199167|-7.321389|FAO|0.6384226377643586|
es:matalascañas|es|Matalascañas|36.998254|-6.551621|XRY|0.5194692079007189|
es:punta umbria|es|Punta Umbria|37.185259|-6.970498|XRY|0.9721011071308375|
es:chiclana de la frontera|es|Chiclana de la Frontera|36.416505|-6.14611|CDZ|0.14235412577441836|
es:chipiona|es|Chipiona|36.7378531|-6.4376642|CDZ|0.29389699239912725|
es:conil de la frontera|es|Conil de la Frontera|36.278099|-6.086207|CDZ|0.29199592574212313|
es:el puerto de santa maria|es|El Puerto de Santa Maria|36.5993547|-6.22733|CDZ|0.06439686570082696|
es:rota|es|Rota|36.623687|-6.360144|CDZ|0.16164555269168446|
es:san fernando|es|San Fernando|36.471865|-6.196595|CDZ|0.06923057308732461|
es:zahara de los atunes|es|Zahara de los Atunes|36.135023|-5.843956|TNG|0.38788635225410467|
es:pozuelo de alarcón|es|Pozuelo de Alarcón|40.4475272|-3.8074152000000367|MAD|0.1328104083680553|
es:mahon menorca|es|Mahon, Menorca|39.8873296|4.259619499999985|MAH|0.16166087698006962|
es:alcaufar menorca|es|Alcaufar, Menorca|39.8290786|4.295209200000045|MAH|0.22061317541007258|
es:binibeca menorca|es|Binibeca, Menorca|39.8204251|4.242307500000038|MAH|0.18461125515994195|
es:cala en porter menorca|es|Cala en Porter, Menorca|39.8734055|4.135701400000016|MAH|0.0802986115103555|
es:arenal den castell menorca|es|Arenal d'en Castell, Menorca|40.0207553|4.181455899999946|MAH|0.1005064940615893|
es:cala blanca menorca|es|Cala Blanca, Menorca|39.971785|3.833482|MAH|0.27784770937709735|
es:cala santandria menorca|es|Cala Santandria, Menorca|39.9780802|3.841267000000016|MAH|0.27067735350533384|
es:son parc menorca|es|Son Parc, Menorca|40.0232507|4.165454100000034|MAH|0.0919032696297783|
es:cala en bosch menorca|es|Cala en Bosch, Menorca|39.9272831|3.8313683000000083|MAH|0.27996977427378744|
es:fornells menorca|es|Fornells, Menorca|40.05714469999999|4.130267099999969|MAH|0.10932799215588186|
es:biniancolla menorca|es|Biniancolla, Menorca|39.8127038|4.263291600000002|MAH|0.20520853281698548|
es:son boumenorca|es|Son Bou,Menorca|39.90867|4.070273000000043|MAH|0.057370695091626206|
es:santo tomas menorca|es|Santo Tomas, Menorca|39.9175616|4.03761499999996|MAH|0.07957696423228149|
es:cala galdana menorca|es|Cala Galdana, Menorca|39.9374436|3.962974499999973|MAH|0.1479729554282738|
es:antequera|es|Antequera|37.016667|-4.566667|AGP|0.3305833392323336|
es:ronda|es|Ronda|36.746209|-5.161225|QRL|0.36050325727516175|
mx:metepec|mx|Metepec|19.2528864|-99.59855099999999|TLC|0.1054197219971773|
mx:tepotzotlan|mx|Tepotzotlan|19.7185096|-99.2065202|TZ9|0.017586804718311134|
mx:san juan teothuacan|mx|San Juan Teothuacan|19.685267|-98.87211860000002|TE2|0.011511665168889892|
mx:santa fe|mx|Santa Fe |19.38589064283876|-99.22662390124056|MEX|0.11107311976909813|
mx:merida|mx|Merida |20.97|-89.62|MID|0.004808326112067366|
mx:chichen itza|mx|Chichen-Itza|20.6783333|-88.56888879999997|CZA|0.01183742008758095|
es:es mercadal|es|Es Mercadal|39.9873778|4.0938255999999456|MAH|0.041245553497337765|
mx:telchac puerto|mx|Telchac Puerto|21.3421022|-89.26246259999999|M20|0.37275824542351915|
mx:celestun|mx|Celestun|20.8593042|-90.39720520000003|CY1|0.03160681882897538|
mx:tecoh|mx|Tecoh|20.7442201|-89.47185460000003|M20|0.2627601851183972|
mx:cuautitlan|mx|Cuautitlan|19.646144279333953|-99.19967651367189|TZ9|0.07886785463411454|
es:cartagena|es|Cartagena|37.68695719816848|-1.0491787246428432|MJV|0.30398381906875216|
mx:patzcuaro|mx|Patzcuaro|19.5134546|-101.60918759999998|PT4|0.0024622540323824492|
za:waterval boven|za|Waterval Boven|-25.63894385413753|30.339061701670293|NLP|0.6523063470807198|
es:puente genil|es|Puente Genil|37.383333|-4.766667|ODB|0.4966781833118928|
es:verin|es|Verin|41.940833|-7.435833|VRL|0.7135085786295785|
es:nueva|es|Nueva|43.437635|-4.939627|S38|0.8326485986020753|
es:gijon|es|Gijon|43.533333|-5.7|LEN|0.9621558132075082|
es:cangas de onís|es|Cangas de Onís|43.350625|-5.131013|LEN|0.8868892133710974|
es:llanes|es|Llanes|43.421148|-4.756216|S38|0.6486131850032042|
es:perlora|es|Perlora|43.578976|-5.747513|LEN|1.0146250113933708|
mx:playa del carmen|mx|Playa del Carmen|20.646298535891304|-87.08784580781784|PCM|0.022340619934269605|
mx:akumal|mx|Akumal|20.4|-87.321111|AK5|0.0065450394689469645|
mx:tulum|mx|Tulum|20.21|-87.46|RM4|0.081922246983959|
es:la pobla de lillet|es|La Pobla de Lillet|42.244565|1.975309|ALV|0.5251216408661895|
es:areu|es|Areu|42.588035|1.325835|ALV|0.21000786520985248|
es:tavascan|es|Tavascan|42.644804|1.256915|ALV|0.2972416031463297|
do:cabarete dominicana|do|Cabarete, Dominicana|19.750923|-70.414421|D03|0.045975359787170954|
do:sosúa dominicana|do|Sosúa, Dominicana|19.751932|-70.518918|D02|0.015988173351573865|
es:puerto de andratx|es|Puerto de Andratx|39.544069|2.389385|CM5|0.20864013592949945|
do:bávaro|do|Bávaro|18.698383|-68.451145|PUJ|0.12501436946534863|
es:salou|es|Salou|41.077778|1.128889|REU|0.08102360153066561|
es:el vendrell|es|El Vendrell|41.21966989999999|1.5343070000000125|REU|0.43164358769130284|
es:mora debre|es|Mora d'Ebre|41.086771|0.638185|REU|0.47428001735894426|
es:hospitalet del infant|es|Hospitalet del Infant|40.99092400000001|0.9237179000000424|REU|0.24689308300637547|
es:reus|es|Reus|41.1498259|1.105532100000005|REU|0.006354820313743971|
es:ferrol|es|Ferrol|43.489646|-8.219345|LCG|0.25641621310088886|
es:alceda|es|Alceda|43.1961351|-3.9177323000000115|SDR|0.21874942471993428|
es:castelldefels|es|Castelldefels|41.280016|1.976629|BCN|0.23113163153709382|
es:albarracín|es|Albarracín|40.407558|-1.443876|ZAZ|1.360309062948561|
es:puerto de la cruz   tenerife norte|es|Puerto de la Cruz - Tenerife Norte|28.411413|-16.544961|PCZ|0.02856102746751359|
es:las caletillas  tenerife norte|es|Las Caletillas -Tenerife Norte|28.377257|-16.362386|SPC|0.1712397315023587|
es:callao salvaje  tenerife sur|es|Callao Salvaje -Tenerife Sur|28.13021|-16.778756|TCI|0.22005189542253406|
es:el medano  tenerife sur|es|El medano -Tenerife Sur|28.041667|-16.533333|TCI|0.26762941265423495|
es:los cristianos   tenerife sur|es|Los Cristianos - Tenerife Sur|28.048906|-16.711598|TCI|0.2562882447929493|
es:golf del sur   tenerife sur|es|Golf del Sur - Tenerife Sur|28.031536|-16.607607|TCI|0.26091696287296273|
es:san miguel de abona   tenerife norte|es|San Miguel de Abona - Tenerife Norte|28.0975|-16.617222|TCI|0.19442872639671938|
es:buenavista del norte   tenerife norte|es|Buenavista del Norte - Tenerife Norte|28.372065|-16.851429|TCI|0.23642573223667726|
es:costa adeje tenerife sur|es|Costa Adeje Tenerife Sur|28.076686|-16.731949|TCI|0.23821018127538302|
es:guía de isora   tenerife sur|es|Guía de Isora - Tenerife Sur|28.211112|-16.778756|TCI|0.16988318400668811|
es:puerto de santiago   tenerife sur|es|Puerto de Santiago - Tenerife Sur|28.236196|-16.841127|TCI|0.21910760054103504|
es:talavera de la reina|es|Talavera de la Reina|39.962884|-4.830453600000055|XTJ|0.8193830990257553|
ar:chubut|ar|Chubut|-43.3|-65.1|REL|0.23537204591879968|
ar:corrientes|ar|Corrientes|-27.483333|-58.816667|CNQ|0.009428561820341708|
ar:misiones|ar|Misiones|-27.392497540937864|-55.92041015625001|VDR|0.017851965493988788|
es:sanxenxo|es|Sanxenxo|42.4033003|-8.811359100000004|VGO|0.20054501522825313|
es:vigo|es|Vigo|42.240599|-8.720727|VGO|0.022589982957058222|
es:requena|es|Requena|39.486111|-1.101667|VLC|0.7016678795626887|
es:tordesillas|es|Tordesillas|41.5015353|-4.998745900000017|VLL|0.28968308530687115|
es:benavente|es|Benavente |42.002884|-5.678469|LEN|0.5872209136406809|
es:puebla de sanabria|es|Puebla de Sanabria|42.055278|-6.633611|OVD|0.14424825061330934|
es:calatayud|es|Calatayud|41.353168|-1.646846|ZAZ|0.8129730032049042|
es:menorca (island)|es|Menorca (Island)|39.96449067924026|4.11712646484375|MAH|0.016294837700913382|
es:cardona|es|Cardona|41.913607|1.679713|MNI|0.34585944997498685|
mx:salvatierra|mx|Salvatierra|20.2090023|-100.88184009999998|CL1|0.3312662454481234|
mx:san felipe torre ochas|mx|San Felipe Torre Ochas|21.4788756|-101.21587999999997|GMO|0.46293763099942936|
ar:la plata|ar|La Plata|-34.920495|-57.953566|CYR|0.4952683136452419|
es:morella|es|Morella|40.6181387|-0.10154920000002221|VLC|1.1717833389574734|
co:san andres|co|San Andres|12.546114|-81.718785|ADZ|0.0326641611096962|
mx:purísima del rincón|mx|Purísima del Rincón|20.889695|-101.91255000000001|BJX|0.33605980944617964|
mx:san francisco del rincón|mx|San Francisco del Rincón|21.0170828|-101.84925770000001|BJX|0.1998620600942847|
mx:san jose iturbide|mx|San Jose Iturbide|20.998668|-100.38628699999998|SG3|0.0035179245301601666|
mx:san luis de la paz|mx|San Luis de la Paz|21.293404|-100.52398670000002|SG3|0.3236483689328495|
mx:tarimoro|mx|Tarimoro|20.2872523|-100.75770439999997|CL1|0.24640487745711087|
mx:tierra blanca|mx|Tierra Blanca|21.0996728|-100.22853|SG3|0.18404088556579018|
mx:valle de santiago|mx|Valle de Santiago|20.392169|-101.19005279999999|SL2|0.2190332158919536|
mx:victoria mx|mx|Victoria MX|21.2114452|-100.286124412|SG3|0.23172355936457087|
mx:villagrán|mx|Villagrán|20.5134143|-100.99483150000003|CL1|0.19553618293490752|
mx:xichú|mx|Xichú|21.2956014|-100.127406612|SG3|0.3904337044908914|
mx:yuriria|mx|Yuriria|20.210945|-101.13059620000001|SL2|0.4040975929938739|
mx:apaseo el alto|mx|Apaseo el Alto|20.467545926132438|-100.63854217529297|CL1|0.17311597413809213|
es:salinas de pisuerga|es|Salinas de Pisuerga|42.8515317|-4.377712900000006|S38|0.6011668750116758|
mx:nayarit|mx|Nayarit|21.705122789450286|-105.3498189180991|RNA|0.22868525727206726|
es:sant sadurní danoia|es|Sant Sadurní d'Anoia|41.426175|1.786751|MNI|0.1923378792983825|
es:bellmunt del priorat|es|Bellmunt del Priorat|41.163699|0.765462|REU|0.34202692912254723|
es:puerto calero|es|Puerto Calero|28.919227220721236|-13.706130981445314|ACE|0.175535320865845|
ar:tílcara|ar|Tílcara|-23.594194326203823|-65.39062500000001|JUJ|0.613554567606213|
ar:cachi|ar|Cachi|-25.127879288597565|-66.15966796875001|SLA|0.8190335685763759|
es:igualada|es|Igualada|41.583333|1.616667|MNI|0.22947009319081155|
es:south mallorca|es|South Mallorca|39.36721747059305|3.0370330810546875|PMI|0.4366113137710973|
es:west mallorca|es|West Mallorca|39.583465521602|2.4609375|CM5|0.14064384209797368|
es:cadaqués|es|Cadaqués|42.2887571|3.2779722999999876|GRO|0.5514849633220831|
pe:puerto maldonado|pe|Puerto Maldonado|-12.5909084|-69.1963141|PEM|0.06435808425807585|
za:benoni|za|Benoni|-26.193413368458465|28.308441638946537|JNB|0.27942428692188637|
za:cullinan|za|Cullinan|-25.670384879426955|28.52831840515137|PRY|0.3011404439272549|
za:edenvale|za|Edenvale|-26.13706206392209|28.15032005310059|JNB|0.12474703528020589|
za:germiston-5|za|Germiston|-26.229355345199814|28.18115472793579|JNB|0.1623909134808087|
za:kempton park|za|Kempton Park|-26.096852281589697|28.23373675346375|JNB|0.21646998272412044|
za:upington|za|Upington|-28.454411070764973|21.24514477327466|UTN|0.016143118891186935|
za:dysselsdorp|za|Dysselsdorp|-33.57381352399269|22.43442535400391|OUH|0.2445036322129489|
za:gansbaai|za|Gansbaai|-34.58202200625263|19.35167406219989|CPT|1.1307362526570044|
za:khayelitsha|za|Khayelitsha|-34.039715917816835|18.663970381021503|CPT|0.2583782815250921|
za:kraaifontein|za|Kraaifontein|-33.8481066183261|18.717226982116703|CPT|0.29123998311222965|
za:muizenberg|za|Muizenberg|-34.10430706913501|18.465593196451664|CPT|0.1868289040867801|
za:robertson|za|Robertson|-33.80354259481926|19.877958297729496|CPT|1.4476501567049405|
za:rondebosch|za|Rondebosch|-33.969025217957444|18.489282466471195|CPT|0.07314409177760928|
za:sedgefield|za|Sedgefield|-34.01816273587814|22.803282737731937|GRJ|0.3597983481643103|
za:stanford|za|Stanford|-34.439991052260304|19.455531835556034|CPT|1.1453715213039595|
za:strand|za|Strand|-34.10864218970927|18.82805619388819|CPT|0.4359805583878489|
za:fort beaufort|za|Fort Beaufort|-32.77690139152888|26.633895803242922|BIY|0.7618142209573969|
za:paterson|za|Paterson|-33.43951720039987|25.976389814168222|PLZ|0.6504469946745688|
za:pinetown|za|Pinetown|-29.818287597401078|30.884102750569582|DUR|0.1066692598872025|
za:pongola|za|Pongola |-27.37817446469046|31.616375190205876|VYD|0.9103223024853432|
za:bela bela|za|Bela-Bela|-24.8886360378089|28.314718175679445|PRY|0.8226998863023788|
za:thohoyandou|za|Thohoyandou|-22.970020386205213|30.459889853373173|LTA|0.8975810500125664|
za:komatipoort|za|Komatipoort|-25.433334049719218|31.957415509969003|LLE|0.45272124858098983|
za:machadodorp|za|Machadodorp|-25.669437224360863|30.24917023256421|NLP|0.7470131611447789|
za:marloth park|za|Marloth Park |-25.343870889395717|31.777181625366214|LLE|0.3078714386867653|
za:mbombela|za|Mbombela |-25.48113036962803|30.985286571085457|NLP|0.016387773317437144|
za:sabie|za|Sabie|-25.09589831700313|30.780065394938|NLP|0.42370796467751004|
za:harrismith|za|Harrismith|-28.27352522137512|29.1307963617146|HRS|0.0014854291427110317|
pe:chanchamayo|pe|Chanchamayo|-10.922621087638406|-75.17941213678569|SFK|0.6187272548535544|
pe:oxapampa|pe|Oxapampa|-10.583825137313388|-75.39915431058036|SFK|0.999747454686636|
pe:apurimac|pe|Apurimac|-14.048969133228944|-73.13046194147319|ANS|0.4663864573850252|
pe:ayacucho|pe|Ayacucho|-13.1448936269119|-74.22350792214276|AYP|0.030310051439738323|
pe:huanuco|pe|Huanuco|-9.910385711105315|-76.2643393588951|HUU|0.026169427627963045|
pe:manu|pe|Manu|-12.549811022407184|-71.50994732044637|UMI|1.0110053303059539|
pe:pasco|pe|Pasco|-10.64741853948686|-76.2505791289732|HUU|0.7274954636003094|
pe:tambopata|pe|Tambopata|-12.630836385043192|-69.85094932839276|PEM|0.6742910232296252|
es:caleta de velez|es|Caleta de Velez|36.749269523090014|-4.070005416870118|AGP|0.35118322508870603|
es:orihuela|es|Orihuela|38.09|-0.94|MJV|0.21954498400100472|
es:vandellós y hospitalet del infante|es|Vandellós y Hospitalet del Infante|41.0201|0.832907|REU|0.3062483421163303|
es:castell de guadalest|es|Castell de Guadalest|38.676944|-0.197778|ALC|0.4333628609144999|
es:vilafamés|es|Vilafamés|40.1|-0.066667|VLC|0.6995254740815394|
es:capellades|es|Capellades|41.530965|1.685923|MNI|0.17711787917937433|
es:valderrobres|es|Valderrobres|40.8733331|0.15359490000003007|REU|0.9947804892344653|
es:palau solità i plegamans|es|Palau-solità i Plegamans|41.583946|2.180415|BCN|0.20066820261566004|
es:puertomingalvo|es|Puertomingalvo|40.2648619|-0.459967000000006|VLC|0.7821640647336152|
es:el castell de guadalest|es|El castell de Guadalest|38.6769639|-0.19832359999998062|ALC|0.433018178533165|
es:mataro|es|Mataro|41.5381124|2.444740599999932|CE5|0.23693358681738297|
es:blanes|es|Blanes|41.6759954|2.7902288999999882|CE5|0.13547066832479493|
za:hds|za|HDS|-24.346139|30.973292|HDS|0.020622652230012938|
cr:alajuela|cr|Alajuela|10.391583|-84.4382721|SJO|0.3946214336138006|
mx:san jose del cabo airport|mx|San Jose del Cabo airport|23.145536|-109.718267|SJD|0.08339587251417147|
cr:quepos|cr|Quepos|9.432143|-84.16151|XQP|0.009305855629652278|
es:caseres|es|Caseres|41.0394453|0.2511497000000418|REU|0.8641332497954871|
pe:colca canyon|pe|Colca Canyon|-15.638245636786577|-71.6191864013672|SA2|0.07509742504609464|
cr:conchal|cr|Conchal|10.3996|-85.811662|SC1|0.2672411752780629|
pa:san blas|pa|San Blas|9.544442822720683|-78.77569921015717|AML|0.875163842572304|
es:cuevas de almanzora|es|Cuevas de Almanzora|37.2922445|-1.8760839999999916|LEI|0.7212597702189278|
bz:caye caulker|bz|Caye Caulker|17.761158|-88.027749|SPR|0.16919276215311244|
cr:sixaola|cr|Sixaola|9.547652|-82.702145|CHX|0.21241816195655092|
mx:isla holbox|mx|Isla Holbox|21.545690895049034|-87.23885755630222|IH1|0.15957298243815887|
cr:peñas blancas|cr|Peñas Blancas|11.211153|-85.612733|SJN|0.2773729263764048|
cr:guapiles|cr|Guapiles|10.214379|-83.788367|TTQ|0.43461653181856463|
es:alfaro|es|Alfaro|42.178333|-1.7475|PNA|0.6490321940312342|
pe:pisaq|pe|Pisaq|-13.426355740831927|-71.85333251953126|CUZ|0.15446736800956895|
es:baeza|es|Baeza|37.995803|-3.467401|GRX|0.8390847094364222|
es:hornos|es|Hornos|38.206936|-2.720798|ABC|1.1633072136370537|
mx:iguala de la independencia|mx|Iguala de la Independencia|18.3448477|-99.53973439999999|TG1|0.2394084513517706|
ar:la rioja|ar|La Rioja|-29.448035389420514|-66.85129802674057|IRJ|0.038057531735379395|
cu:cayo largo cuba|cu|Cayo Largo, Cuba|21.633333|-81.466667|CYO|0.06585318411147748|
mx:nuevo laredo|mx|Nuevo Laredo|27.479698247982427|-99.51591930305241|NLD|0.03966932113631486|
cl:rancagua|cl|Rancagua|-34.170132|-70.740626|SCL|0.7238859615298531|
es:santo domingo de silos|es|Santo Domingo de Silos|41.9043464|-3.2331366|RJL|0.9825706469931389|
es:setenil de las bodegas|es|Setenil de las bodegas|36.8810546|-5.1532184|QRL|0.45352298521653933|
es:torre del mar|es|Torre Del Mar|36.74342361062347|-4.092750549316407|AGP|0.32805836312896314|
es:zugarramurdi|es|Zugarramurdi|43.2630267|-1.5507611|BIQ|0.2105524695796794|
es:alalpardo|es|Alalpardo|40.6385042|-3.45316439|BJ1|0.2301979017752169|
es:montroig del camp|es|Montroig del Camp|41.0865513|0.9606138000000328|REU|0.16234355762431785|
es:vallromanes|es|Vallromanes|41.5233876|2.29751829|BCN|0.18068624681000073|
pa:farallon|pa|Farallon|8.388148225618172|-80.14801025390625|A07|0.7618701648554459|
es:formigal|es|Formigal|42.7766544|-0.359537199999977|LDE|0.44762222378160343|
es:candanchu|es|Candanchu|42.7882105|-0.5269639000000552|PUF|0.5362956367093403|
es:canfranc|es|Canfranc|42.71649|-0.5254869000000326|PUF|0.6047290299891487|
es:llivia|es|Llivia|42.46475260496136|1.9809722900390627|ALV|0.46580777910114496|
es:eibar|es|Eibar|43.1832096|-2.4715421999999307|VIT|0.38783261326637436|
za:brits|za|Brits|-25.6099895|27.79597130000002|HLA|0.34282008958794424|
es:parres|es|Parres|43.4073351|-4.7765058|S38|0.6683573414616242|
es:peñarroya de tastavíns|es|Peñarroya de Tastavíns|40.7548793|0.0385924|REU|1.1415635276436669|
es:puente la reina|es|Puente la Reina|42.6862683|-1.8488206|PNA|0.23961176634140827|
es:sos del rey catolico|es|Sos del Rey Catolico|42.4874156|-1.2564704|PNA|0.5152455038130087|
es:lozoya|es|Lozoya|41.0548094|-3.8254598999999416|SL4|0.562740085678321|
es:carmona|es|Carmona|37.471274|-5.641821400000026|SVQ|0.3523553203582879|
es:trillo|es|Trillo|40.7039995|-2.6009401|BJ1|1.0358366897287725|
es:vilagarcia de arousa|es|Vilagarcia de Arousa|42.5953513|-8.765908200000013|SCQ|0.36499723513875665|
es:sastago|es|Sastago|41.32310441430644|-0.34606933593750006|ZAZ|0.6346032549974868|
es:villajoyosa|es|Villajoyosa|38.504116723098505|-0.23277282714843753|ALC|0.2937648631880486|
ec:baños|ec|Baños|-1.4|-78.43|BA8|0.007707788269024878|
es:pirineo aragones|es|Pirineo Aragones|42.48627657532141|0.09887695312500001|LDE|0.63152259593066|
es:cerler|es|Cerler|42.5922661|0.5402586000000156|LDE|0.7785877780206845|
es:biescas|es|Biescas|42.6286287|-0.32247929999994085|LDE|0.5444592467688918|
es:sabiñanigo|es|Sabiñanigo|42.51935940000001|-0.3638114000000314|LDE|0.6600159855172646|
es:panticosa|es|Panticosa|42.7237286|-0.28427320000002965|LDE|0.4432427085651992|
es:rubí|es|Rubí|41.49366381024536|2.0309257507324223|BCN|0.1882247786599448|
es:getxo|es|Getxo|43.338737|-3.008132|BIO|0.11823224853228612|
es:mundaka|es|Mundaka|43.408017|-2.700251|BIO|0.2788439981243998|
za:bethlehem|za|Bethlehem|-28.2423025|28.31112619999999|FCB|0.7638150071926314|
ar:pilar buenos aires|ar|Pilar, Buenos Aires|-34.45838378644382|-58.91590020837612|BUE|0.5380597169963358|
es:castelló dempúries|es|Castelló d'Empúries|42.258333|3075.0|LBS|2896.2111147292844|
es:alarcon|es|Alarcon|39.5463283|-2.0864395999999488|ABC|0.5873610515254|
cu:ciego de ávila|cu|Ciego de Ávila|21.844354392507825|-78.76514245151814|AVI|0.005429017034393662|
es:costa de los pinos|es|Costa de los Pinos|39.63572042007331|3.4184646606445317|MAH|0.7598519986582793|
es:cedeira|es|Cedeira|43.66602219476107|-8.049804537823007|LCG|0.4999555936165574|
es:cala figuera|es|Cala Figuera|39.330158|3.168553|PMI|0.5710198790055749|
ar:colón|ar|Colón|-32.21806119446975|-58.135545183523604|STY|0.8444086157394469|
ar:concordia|ar|Concordia|-31.39292202932701|-58.0169066019111|STY|0.048277857301328185|
za:oudtshoorn|za|Oudtshoorn|-33.6007225|22.202634699999976|OUH|0.024270509890391076|
za:plettenberg bay|za|Plettenberg Bay|-34.05748920000001|23.364492499999983|PBZ|0.008570472150959149|
za:hermanus|za|Hermanus|-34.4092004|19.25044360000004|CPT|0.95092864934294|
za:beacon bay|za|Beacon Bay|-32.96904947834769|27.945174146443605|ELS|0.07518015552614923|
es:daimiel|es|Daimiel|39.0699215|-3.6141818999999487|VDE|0.4396195769411365|
ar:cariló|ar|Cariló|-37.161141027113814|-56.89969884216816|VGL|0.13759688722703314|
es:cala san vicente|es|Cala San Vicente|39.07576|1.591449|IBZ|0.2303341203577968|
pe:poroy|pe|Poroy|-13.500812667784036|-72.04319000244142|CUZ|0.07499738319673692|
es:estellencs|es|Estellencs|39.652477|2.480662|CM5|0.15474348894115084|
co:yopal|co|Yopal|5.348903|-72.40052300000002|EYP|0.005798184026040598|
co:florencia caquetá|co|Florencia, Caquetá|1.6213625765118707|-75.61489498991068|FLA|0.01209294057666339|
es:fuencaliente|es|Fuencaliente|28.496453927665872|-17.84385681152344|GMZ|0.8352364680794185|
es:fornalutx|es|Fornalutx|39.782242|2.740966|PMI|0.23121869015012284|
es:el cotillo|es|El Cotillo|28.68298280232846|-14.005336761474611|FUE|0.32782273000481604|
es:la pared|es|La Pared|28.21123913340278|-14.20463562011719|FUE|0.2110601207524918|
mx:guerrero negro|mx|Guerrero Negro|27.97262602159016|-114.03610361918939|BHL|1.083803177892487|
es:figueres|es|Figueres|42.26550659999999|2.9581046000000697|GRO|0.3170766954736089|
ar:garupá|ar|Garupá|-27.454640899007494|-55.86107098098228|VDR|0.06829131833753559|
es:guadix|es|Guadix|37.3011351|-3.140325599999983|GRX|0.4650463283022309|
cl:coyhaique|cl|Coyhaique|-45.56748354267024|-72.05657178419642|GXQ|0.013661974131135034|
es:haría|es|Haría|29.149162902015703|-13.498420715332031|ACE|0.18441637487945725|
es:inca|es|Inca|39.717774|2.907547|PMI|0.2969904029411382|
cr:esterillos|cr|Esterillos|9.528615|-84.489278|LIO|0.24684994492403373|
cr:puntarenas|cr|Puntarenas|9.9778439|-84.82942109999999|JAP|0.008711625130830038|
es:cazorla|es|Cazorla|37.9124527|-3.0038121000000046|GRX|0.9468183108937533|
pe:juliaca|pe|Juliaca|-15.486422731455649|-70.12597427121365|JUL|0.0195208424283811|
za:jozini|za|Jozini|-27.4293515|32.06506969999998|HLW|0.6421668431882392|
es:los cancajos|es|Los Cancajos|28.648264535669917|-17.75845527648926|GMZ|0.8521154476093841|
co:leticia|co|Leticia|-4.210149608051278|-69.93484497070314|LET|0.01111775825402357|
es:viveiro|es|Viveiro|43.6642649|-7.5945348000000195|LCG|0.8905761167822874|
es:palamos|es|Palamos|41.8505066|3.129816099999971|GRO|0.33424219440890546|
es:areyns de mar|es|Areyns de Mar|41.58322161171842|2.556381225585938|CE5|0.11672051911894522|
es:sant pol de mar|es|Sant Pol de Mar|41.6039431|2.6244208000000526|CE5|0.04559990603329625|
es:san javier|es|San Javier|37.8054749|-0.8379313000000366|MJV|0.3402398213755666|
za:kruger national park|za|Kruger National Park|-24.745502281940603|31.058286865827085|HDS|0.4080398651354573|
za:vaalwater|za|Vaalwater|-24.298507239492462|28.12099831178785|PTG|1.1188916557308|
ar:lanús|ar|Lanús|-34.703431559745106|-58.392765309575154|BUE|0.10104255067049285|
mx:monclova|mx|Monclova|26.902476886279832|-101.40930175781251|LOV|0.010981227233117584|
pe:lake titicaca|pe|Lake Titicaca|-15.908508237156719|-69.35119628906251|JUL|0.8883075335792439|
es:mazagon|es|Mazagon|37.1369251|-6.828392000000008|XRY|0.8259243209725806|
es:sotogrande|es|Sotogrande|36.295204533693536|-5.2947235107421875|GIB|0.1829124248161635|
es:tres cantos|es|Tres cantos|40.622277115363914|-3.7008530047145882|BJ1|0.17732058067022072|
es:collado villalba|es|Collado Villalba|40.6308775|-4.005560500000001|SL4|0.14676406753222618|
es:valdemoro|es|Valdemoro|40.1912403|-3.6740181999999777|MAD|0.20897040583616405|
ar:san rafael|ar|San Rafael|-34.61923961159946|-68.33461566333426|AFA|0.019284543668627526|
es:archena|es|Archena|38.11677350000001|-1.3011430999999902|MJV|0.2190820644869399|
za:hazyview|za|Hazyview|-25.0519121|31.136671500000034|SZK|0.45334519302472887|
za:emalahleni|za|Emalahleni|-25.87658114419431|29.198001790791757|ZEC|0.6741459467069536|
ar:miramar|ar|Miramar|-38.26783079180215|-57.84178357204344|MDQ|0.3745183194840927|
za:vaalkop dam|za|Vaalkop Dam|-25.313421|27.46154999999999|NTY|0.36573990340266527|
es:montilla|es|Montilla|37.5877237|-4.637286600000039|ODB|0.3209957664537686|
es:la oliva|es|La Oliva|28.615267765944424|-13.92448425292969|FUE|0.2872196985315614|
cu:pinar del río|cu|Pinar del Río|22.425290960936863|-83.6922614186413|C09|0.07172575021806447|
es:paguera|es|Paguera|39.53860167105348|2.4514961242675786|CM5|0.14696221942967985|
es:masella|es|Masella|42.3515178|1.9024443000000701|ALV|0.41352142195947134|
es:llavorsi|es|Llavorsi|42.495852|1.2100295000000187|ALV|0.3064985697751924|
es:port ainé|es|Port Ainé|42.4498132|1.2258022999999412|ALV|0.2949980808065775|
es:las playitas|es|Las Playitas|28.22848250383671|-13.982677459716799|FUE|0.14835344922180796|
es:can pastilla|es|Can Pastilla|39.53747639330638|2.7148246765136723|PMI|0.07220415376392975|
es:las maravillas|es|Las Maravillas|39.52456749089643|2.7462387084960938|PMI|0.10610858819183504|
es:ses cadenes|es|Ses Cadenes|39.51264945075147|2.7549934387207036|PMI|0.11930385150758128|
es:felanitx mallorca|es|Felanitx, Mallorca|39.4696851|3.148296999999957|PMI|0.5080583224827707|
es:son servera mallorca|es|Son Servera, Mallorca|39.6201493|3.360304400000018|PMI|0.7119408851486729|
ar:pinamar|ar|Pinamar|-37.10835430074834|-56.85411125495423|VGL|0.20729004129942263|
mx:puerto progreso|mx|Puerto Progreso|21.29033403449086|-89.66732025146486|MID|0.3276831838779468|
ar:paraná|ar|Paraná|-31.752825793944496|-60.51267970120535|PRA|0.028398122324256255|
es:porto colom|es|Porto Colom|39.415782|3.256477|PMI|0.6255238377880892|
ar:posadas|ar|Posadas|-27.36590046188688|-55.894619707028184|PSS|0.0124996921835388|
es:playa de santiago|es|Playa de Santiago|28.02653070487077|-17.20544815063477|GMZ|0.1128064485480473|
mx:pátzcuaro|mx|Pátzcuaro|19.518195293960623|-101.61289019946709|PT4|0.004603266900016646|
ar:purmamarca|ar|Purmamarca|-23.748072522249814|-65.49864423832524|JUJ|0.46026291619540244|
es:san sebastian de la gomera|es|San Sebastian de La Gomera|28.091366281406945|-17.108459472656254|GMZ|0.004846166458788376|
do:cabrera|do|Cabrera|19.635409805020558|-69.90966592848909|RSJ|0.1669500943797165|
za:madikwe|za|Madikwe |-24.7604347|26.277707299999975|GBE|0.3831993090773549|
es:ojedo|es|Ojedo|43.1632256|-4.607594800000015|S38|0.547877292869871|
co:barichara|co|Barichara|6.630947|-73.1811963|CO_0762|0.041874322235599844|
es:sant elm|es|Sant Elm|39.580949|2.35081|CM5|0.24883602733060978|
es:santa catalina|es|Santa Catalina|28.176592721900406|-17.18072891235352|GMZ|0.1084915710883498|
ar:tandil|ar|Tandil|-37.3238205399637|-59.13664990919643|MDQ|1.697167523250501|
es:iglesuela del cid|es|Iglesuela del Cid|40.48116484751599|-0.3216934204101563|VLC|0.9992378714968824|
es:ocaña|es|Ocaña|39.94448932676474|-3.4950256347656254|OC1|0.014784648776497189|
co:villa de leyva|co|Villa de Leyva|5.636499|-73.52705800000001|VI1|0.01751050000114238|
es:valle gran rey|es|Valle Gran Rey|28.10113367145248|-17.329387664794925|GMZ|0.21629787277707654|
pe:sacred valley|pe|Sacred Valley|-13.329493803819895|-72.08164215087892|CUZ|0.22405413884554312|
cl:valdivia|cl|Valdivia|-39.81182069255033|-73.21836817776786|ZAL|0.0314990421009477|
es:alora|es|Alora|36.823226|-4.702012|UTL|0.2367994889542212|
es:guardamar del segura|es|Guardamar del Segura|38.10778653627413|-0.6845816684653984|YJE|0.2976299673408285|
es:elda|es|Elda|38.473056|-0.7975|YJE|0.3201299476945096|
es:elche|es|Elche|38.26514122031372|-0.7017517089843751|YJE|0.2128550408101148|
es:manlleu|es|Manlleu|42.000277310068675|2.28416919708252|GRO|0.5376626668138285|
es:santurce|es|Santurce|43.328128|-3.033658599999967|BIO|0.12980404361171902|
es:jerez de los caballeros|es|Jerez de los Caballeros|38.320806|-6.773028|BJZ|0.5932481888889376|
es:miranda de ebro|es|Miranda de Ebro|42.6869753|-2.945067999999992|VIT|0.3197490538439262|
co:barrancabermeja|co|Barrancabermeja|7.0617085|-73.85193190000001|EJA|0.028357383692083786|
mx:cabo san lucas|mx|Cabo San Lucas|22.958393318086348|-109.92370605468751|A06|0.06834731826660392|
es:san roque|es|San Roque|36.250918288153876|-5.359954833984375|GIB|0.11989925636408492|
es:villareal|es|Villareal|39.93536|-0.095275|VLC|0.5437659930751491|
es:peñíscola|es|Peñíscola|40.359684431918566|0.3856691087619595|REU|1.074641665962427|
pe:chivay|pe|Chivay|-15.6388455|-71.60204379999999|SA2|0.05982959661453853|
es:canyamel|es|Canyamel|39.658455|3.439107599999943|MAH|0.7317621840072481|
pa:isla colon|pa|Isla Colon|9.404976|-82.269352|BOC|0.07292687899533172|
za:paarl|za|Paarl|-33.7342304|18.96210910000002|CPT|0.5588867037128306|
za:langebaan|za|Langebaan|-33.09427404412784|18.036033064126972|SDB|0.20383455377086648|
es:carmona-10|es|Carmona|43.254444|-4.359724|S38|0.28507730550150967|
es:motril|es|Motril|36.748975|-3.518036|GRX|0.4213798499228434|
es:cullera|es|Cullera|39.16354673585105|-0.25336921287816955|VLC|0.35331683906089456|
es:foz|es|Foz|43.569452|-7.258042|LCG|1.1863741627614792|
es:costa calma fuerteventura|es|Costa Calma, Fuerteventura|28.161944|-14.228056|FUE|0.2629419459883896|
cu:holguin|cu|Holguin|20.8795129|-76.25949809999997|HOG|0.00848912186389878|
es:humera|es|Humera|40.42914561480308|-3.7855625152587895|MAD|0.10623862944453034|
co:ibague|co|Ibague|4.444675999999999|-75.24243799999999|IBE|0.011754948745091188|
es:javier|es|Javier|42.591946|-1.210056|PNA|0.49553945357761375|
es:linares|es|Linares|38.09690980000001|-3.6369803000000047|GRX|0.9333583593262323|
es:andújar|es|Andújar|38.03849|-4.051661899999999|ODB|0.7356145091089563|
es:bailen|es|Bailen|38.0951601|-3.7765276000000085|VDE|0.9083628755479609|
es:san jose|es|San Jose|36.7619796|-2.109434999999962|LEI|0.32776454396591614|
es:vera|es|Vera|37.2291388|-1.8611011000000417|LEI|0.6947793511659675|
es:astorga|es|Astorga|42.4549303|-6.053251100000011|LEN|0.4991733721957833|
es:tossa de mar|es|Tossa de Mar|41.722499|2.930367|GRO|0.27904557876914826|
es:platja daro|es|Platja d'Aro|41.817949|3.066856|GRO|0.29377248919599236|
es:torroella de montgri|es|Torroella de Montgri|42.0419133|3.1265315000000555|GRO|0.3114433691859307|
es:los alcázares|es|Los Alcázares|37.7505094|-0.847665099999972|MJV|0.3638391557355874|
es:lanjaron|es|Lanjaron|36.9187716|-3.4795034999999643|GRX|0.2678767188070239|
es:haro|es|Haro|42.5768716|-2.8502301999999418|VIT|0.32723393448507365|
es:agaete|es|Agaete|28.099846546875447|-15.701780319213867|LPA|0.236827768793845|
es:san bartolome de tirajana   las palmas de gran canaria|es|San Bartolome de Tirajana - Las Palmas de Gran Canaria|27.9249459|-15.573029499999961|LPA|0.026024852378601956|
es:mogán|es|Mogán|27.84514767491011|-15.762634277343752|LPA|0.22791582455209042|
es:islantilla|es|Islantilla|37.2108386|-7.2536747|FAO|0.706700214751666|
es:aranjuez|es|Aranjuez|40.03287211677227|-3.6048889160156254|OC1|0.1282298440772645|
cr:manzanillo|cr|Manzanillo|9.629899|-82.657922|CHX|0.23485977962392632|
mx:poniente|mx|Poniente|20.7286584|-103.42878100000001|M06|0.06433325818781001|
mx:norte|mx|Norte|19.378487|-99.208552|MEX|0.10049469773574868|
mx:valle|mx|Valle|20.5500693|-100.3965546|QRO|0.08162702728661607|
mx:nuevo vallarta|mx|Nuevo Vallarta|20.699529|-105.291712|NVR|0.007545553988938994|
ec:otavalo|ec|Otavalo|0.2343005|-78.26106720000001|OT1|0.003165232391158401|
es:ribadesella|es|Ribadesella|43.463083|-5.056138|S38|0.9506290588515584|
es:mieres|es|Mieres|43.25|-5.776667|LEN|0.7011499475069524|
es:boi|es|Boi|42.5224942|0.8344601000000011|ALV|0.6824107371852001|
pe:pisco|pe|Pisco|-13.7125368841976|-76.20512008666992|PIO|0.015094621629661135|
es:ses salines mallorca|es|Ses Salines, Mallorca|39.3384533|3.053030000000035|PMI|0.46447069148220693|
es:cala mesquida mallorca|es|Cala Mesquida, Mallorca|39.74374359999999|3.429013800000007|MAH|0.7118546329477774|
es:palmanova mallorca|es|Palmanova, Mallorca|39.5242182|2.5373263999999836|CM5|0.06641621902458643|
es:magaluf mallorca|es|Magaluf, Mallorca|39.50584185815384|2.532770545912001|CM5|0.07951753616033223|
es:santa ponsa mallorca|es|Santa Ponsa, Mallorca|39.516155|2.481391|CM5|0.12173786648976556|
es:valldemossa mallorca|es|Valldemossa, Mallorca|39.711452|2.62257|PMI|0.14450976681989486|
es:porto cristo mallorca|es|Porto cristo, Mallorca|39.54413479999999|3.3368180999999595|PMI|0.6871298539412146|
es:portocolom mallorca|es|Portocolom, Mallorca|39.4162793|3.258258|PMI|0.6271285379527312|
es:can picafort mallorca|es|Can Picafort, Mallorca|39.764412|3.158612|PMI|0.5444948592641993|
es:alcudia mallorca|es|Alcudia, Mallorca|39.85569870669521|3.147586910636165|PMI|0.5738339627829611|
es:campos mallorca|es|Campos, Mallorca|39.432579|3.01894029999994|PMI|0.3934127347483895|
es:andratx|es|Andratx|39.5744273|2.4202536999999893|CM5|0.179117296820447|
es:portals nous mallorca|es|Portals Nous, Mallorca|39.531847|2.569821|CM5|0.034251651438725036|
es:banyalbufar mallorca|es|Banyalbufar, Mallorca|39.6875579|2.5145325999999386|CM5|0.15958943715629015|
es:santanyi mallorca|es|Santanyi, Mallorca|39.3538601|3.130293199999983|PMI|0.52637583707324|
es:sillot mallorca|es|S'Illot, Mallorca|39.5698242|3.371959400000037|PMI|0.7217991346645917|
es:el arenal mallorca|es|El Arenal, Mallorca|39.4991953|2.7543375999999853|PMI|0.12573703520573162|
es:playa de muro mallorca|es|Playa de Muro, Mallorca|39.8089205|3.1182255999999597|PMI|0.5256987611399251|
es:pollença mallorca|es|Pollença, Mallorca|39.9073879|3.0830222|PMI|0.5490626121585516|
es:deia mallorca|es|Deia, Mallorca|39.747939|2.648374|PMI|0.17834744587445278|
es:soller mallorca|es|Soller, Mallorca|39.767116946991244|2.711048126220703|PMI|0.20668835045528702|
es:colonia de sant jordi mallorca|es|Colonia de Sant Jordi, Mallorca|39.317274|2.993808|PMI|0.42633602277727034|
es:calas de mallorca|es|Calas de Mallorca|39.4643455|3.2806786|PMI|0.6392432570312258|
es:cala millor mallorca|es|Cala Millor, Mallorca|39.60331|3.3850803|PMI|0.7356926918151694|
es:cala ratjada mallorca|es|Cala Ratjada, Mallorca|39.71004|3.456691|MAH|0.696273586266849|
es:cala dor mallorca|es|Cala d'Or, Mallorca|39.372606|3.22914|PMI|0.6115752823997558|
es:camp de mar|es|Camp de mar|39.53740217563649|2.4187752503651154|CM5|0.17967020068666417|
es:porto petro mallorca|es|Porto Petro, Mallorca|39.3609938|3.210322099999985|PMI|0.5977440902795375|
es:tudela|es|Tudela|42.0613816|-1.6063169000000244|PNA|0.7598750489680344|
ar:quilmes|ar|Quilmes|-34.718433111851645|-58.23904693294101|BUE|0.19633609164900878|
za:richards bay|za|Richards Bay|-28.770521296412177|32.05699858145431|RCB|0.005726538172051313|
co:riohacha|co|Riohacha|11.5384151|-72.91678379999996|RCH|0.007040794731387306|
mx:riviera nayarit|mx|Riviera Nayarit|20.85654|-105.350998|M18|0.09742997335368705|
es:valls|es|Valls|41.283998505385924|1.245574951171875|REU|0.18841853468663036|
es:cunit|es|Cunit|41.19725651800892|1.634044647216797|MNI|0.46300244859797324|
es:lampolla|es|L'Ampolla|40.811275746573315|0.707244873046875|REU|0.5281003708356709|
es:noja|es|Noja|43.4847877|-3.5281482000000324|SDR|0.2911688952043339|
ar:termas de río hondo|ar|Termas de Río Hondo|-27.50423190175877|-64.86228117261314|RHD|0.004814619777284799|
mx:tehuantepec|mx|Tehuantepec|16.3226994|-95.24232999999998|SCX|0.16125446406334965|
za:tembisa|za|Tembisa|-26.022189678282686|28.20141488712366|JNB|0.22634256058857677|
pa:aeropuerto de tocumen|pa|Aeropuerto De Tocumen|9.067178073337747|-79.38634872436523|PTY|0.17703922411796727|
bo:uyuni|bo|Uyuni|-20.461512|-66.8255|UYU|0.0047472248735373895|
es:covas|es|Covas|43.67196914689265|-7.613697052001954|LCG|0.8758238072676646|
cr:la fortuna|cr|La Fortuna|10.471079|-84.641628|A19|0.2701566483079855|
es:larrede|es|Larrede|42.552821589004665|-0.31673124062308494|LDE|0.6087279919501903|
cr:samara|cr|Samara|9.882166|-85.528567|SM3|0.004337361525159587|
es:bellaterra|es|Bellaterra|41.50904328857274|2.09115743637085|BCN|0.15594891845077266|
za:drakensberg|za|Drakensberg|-29.38807608403438|29.465957936161544|LAY|0.8954508733450192|
es:finisterre|es|Finisterre|42.89586856181779|-9.270555987832523|SCQ|0.729571258877667|
mx:guerrero|mx|Guerrero|17.613056|-99.95|ACA|0.7638131048469898|
cu:guama|cu|Guama|19.976643399806278|-76.50477286556594|BLG|0.09209480503357258|
mx:kolem jaa|mx|Kolem Jaa|17.444805|-92.761871|VSA|0.5721198376791379|
es:lerma|es|Lerma|42.025539758148106|-3.7614369409857327|VLL|1.0574909132458705|
es:manilva|es|Manilva|36.37693922957949|-5.250428916478996|GIB|0.27586108890301997|
ec:francisco de orellana|ec|Francisco de Orellana|-0.46108637755568793|-76.99256877657176|LJ1|0.21215588445662104|
es:puerto de alcudia mallorca|es|Puerto de Alcudia, Mallorca|39.832167|3.119964|PMI|0.5381976249073745|
es:salobreña|es|Salobreña|36.74571976615512|-3.586435317986144|GRX|0.41928269059280115|
mx:tlaxcala|mx|Tlaxcala|19.31657472481858|-98.24015640931158|TT1|0.010718449522796812|
es:loja es|es|Loja ES|37.1661897|-4.149075000000039|AGP|0.5216596709072572|
pa:bluff beach|pa|Bluff Beach|9.403278|-82.247845|BOC|0.06787887675116643|
za:bergville|za|Bergville|-28.730512230592844|29.351798842677937|LAY|0.46488886710282995|
es:los gigantes|es|Los gigantes|28.244643485643564|-16.84015249655204|TCI|0.21617546518620484|
mx:lagos de moreno|mx|Lagos de Moreno|21.35740837564228|-101.93528539804835|LOM|0.014025610003901843|
co:manzanillo del mar|co|Manzanillo del Mar|10.517180563630447|-75.49907684326173|CTG|0.1184756597928579|
es:capdepera mallorca|es|Capdepera, Mallorca|39.7023646|3.4353221999999732|MAH|0.7189785777087756|
es:alcocéber|es|Alcocéber|40.2479697|0.28067169999997077|VLC|1.0224660025149683|
za:simons town|za|Simons Town|-34.1937654|18.435665299999982|CPT|0.27376620839915067|
za:white river|za|White River|-25.3299288|31.016307900000015|NLP|0.15171538726131453|
es:cabo de palos|es|Cabo de Palos|37.6333071|-0.693318999999974|MJV|0.5575717556256129|
es:corbera de llobregat|es|Corbera de Llobregat|41.41054830178558|1.9339370727539065|MNI|0.21816671198481985|
es:miajadas|es|Miajadas|39.150364271737175|-5.908155441284181|QWX|0.4915118215245608|
za:dullstroom|za|Dullstroom|-25.41876082649005|30.10454552248121|NLP|0.8675469271500003|
es:los belones|es|Los Belones|37.62258595913689|-0.7762517708761153|MJV|0.5028743443588845|
ar:plaza huincul|ar|Plaza Huincul|-38.93796377809744|-69.1035710301585|NQN|1.0436404388599396|
es:vall de nuria|es|Vall de Nuria|42.39722944572137|2.160533665737603|ALV|0.6521818377033746|
es:chinchon|es|Chinchon|40.13584079730782|-3.423614501953125|OC1|0.1936830153552474|
pe:churin|pe|Churin|-10.811818031646737|-76.87562844934293|SMG|0.7971608027101506|
pe:huancavelica|pe|Huancavelica|-12.756298607622593|-75.01738721388394|AYP|0.9006315699798486|
pe:huancayo|pe|Huancayo|-12.081105578642656|-75.20140040433036|JAU|0.4103743526842425|
pe:huaraz|pe|Huaraz|-9.526115|-77.528779|ATA|0.004072353864780357|
pe:moquegua|pe|Moquegua|-17.206691672284293|-70.93319631647319|PE5|0.018025039061794333|
pe:chachapoyas|pe|Chachapoyas|-6.226183745567667|-77.87628435253384|CHH|0.007152893198979424|
es:mogro|es|Mogro|43.42649456970131|-3.972244262695313|S38|0.14122403321697466|
es:monforte del cid|es|Monforte del Cid|38.37746115487395|-0.7312774658203125|YJE|0.2293670719433581|
es:mutxamel|es|Mutxamel|38.41244136986483|-0.4439163208007813|ALC|0.07297465161073084|
es:navata|es|Navata|42.22394122568158|2.856101989746094|GRO|0.24698696937513487|
es:talayuela|es|Talayuela|39.987642831840844|-5.618133544921876|QUQ|0.908791045038758|
cu:guardalavaca|cu|Guardalavaca|21.115889851122233|-75.82901000976564|GLV|0.00638790484349586|
pa:paso canoas|pa|Paso Canoas|8.53315158731406|-82.83897399902345|DAV|0.41778192035177275|
mx:armeria|mx|Armeria|18.969935255053898|-104.0398406982422|ZLO|0.33093399880826213|
mx:comala|mx|Comala|19.320539266777345|-103.75488281250001|CLQ|0.09702664292085159|
mx:coquimatlán|mx|Coquimatlán|19.20288950660437|-103.8094711303711|CLQ|0.09348829885090373|
mx:ixtlahuacan|mx|Ixtlahuacan|19.00077668148117|-103.73651504516602|CLQ|0.22981748512595954|
mx:minatitlan|mx|Minatitlan|19.38370463414803|-104.04945373535158|CLQ|0.3635448779665141|
mx:tecoman|mx|Tecoman|18.909372071510145|-103.87144088745119|CLQ|0.35459358555915693|
mx:villa de alvarez|mx|Villa de Alvarez|19.259132085945254|-103.74398231506349|CLQ|0.037733670207471405|
es:santa cruz de la palma|es|Santa Cruz de la Palma|28.67793769486622|-17.768669128417972|GMZ|0.879375111601623|
es:morro jable|es|Morro Jable|28.050166892603695|-14.353466033935549|FUE|0.4302251140910104|
es:sant esteve sesrovires|es|Sant Esteve Sesrovires|41.49276374855329|1.8717956542968752|MNI|0.1199511126117607|
es:el brull|es|El Brull|41.81658513965653|2.3054981231689458|CE5|0.4131570012086299|
es:pilar de la horadada|es|Pilar de la Horadada|37.86509663749013|-0.7875823974609376|MJV|0.36118222166196445|
pe:tortugas|pe|Tortugas|-9.363877191202876|-78.40667724609376|CHM|0.3479910412749373|
pe:puerto eten|pe|Puerto Eten|-6.92813092960256|-79.86597061157228|CIX|0.16782101454065726|
es:san vicente de la barquera|es|San Vicente de la Barquera|43.381970926981516|-4.397621154785157|S38|0.2893065575522948|
ec:montanita|ec|Montanita|-1.830285558065514|-80.72547912597658|AR5|0.024705467472787932|
co:nuqui|co|Nuqui|5.703447982149503|-77.26135253906251|NQU|0.02249098889847603|
pe:guadalupe|pe|Guadalupe|-7.241498387894064|-79.48245561565274|PA1|0.1818866555486272|
ec:cotopaxi|ec|Cotopaxi|-0.6646735330829883|-78.44999051070774|MU2|0.16863568674929455|
do:las terrenas|do|Las Terrenas|19.312667654662267|-69.53814723703545|LT1|0.004942598029063726|
ar:villa carlos paz|ar|Villa Carlos Paz|-31.417383714303615|-64.494357513031|AR_036|0.006219534551748752|
ar:luján|ar|Luján|-34.57053604321467|-59.12154370802456|BUE|0.7247489121504966|
pe:tingo maría|pe|Tingo María|-9.294904388605078|-75.9978935820982|TGI|0.012568244811175897|
mx:uxmal|mx|Uxmal|20.35549646991341|-89.76997196718004|UX1|0.03586054621013821|
mx:zacatlán|mx|Zacatlán|19.92885852138925|-97.9606486146804|ZP3|0.006664327716110872|
es:astun|es|Astun|42.80995069999999|-0.5071777000000566|PUF|0.5097865245647489|
es:culla|es|Culla|40.3374631|-0.1648125000000391|VLC|0.8843113122751761|
mx:uruapan|mx|Uruapan|19.41586276770107|-102.05069215132994|UPN|0.019833796842765903|
es:medina de rioseco|es|Medina de Rioseco|41.8823041|-5.042955799999959|VLL|0.37388272978358605|
pa:cocle playa blanca|pa|Cocle, Playa Blanca|8.466182679762255|-80.39931470411832|A07|0.9240680739197369|
cu:sancti spiritus|cu|Sancti Spiritus|21.92761724709426|-79.44320807479633|USS|0.0025817497764419038|
es:sa coma mallorca|es|Sa Coma, Mallorca|39.5759267|3.372904500000004|PMI|0.7227718861716232|
es:palacios de la valduerna|es|Palacios de la Valduerna|42.32708860208345|-5.94010291490693|LEN|0.4482636978595401|
ec:pujili|ec|Pujili|-0.9550466294190159|-78.69497854191509|PU9|0.002922369656798923|
ec:salcedo|ec|Salcedo|-1.0437500506716617|-78.59194732171103|SA3|0.03436063622739603|
es:archidona|es|Archidona|37.09431231037574|-4.38532221817789|AGP|0.37551692958191407|
co:aracataca|co|Aracataca|10.590688435532542|-74.18792955742711|CO_0518|0.5241274426661374|
es:abanto y ciérvana|es|Abanto y Ciérvana|43.3182170227513|-3.071813984614522|BIO|0.15736825736246496|
mx:bahuichivo|mx|Bahuichivo|27.406964553407462|-108.06807650822094|PB1|0.2201036933366183|
es:burgui|es|Burgui|42.720779424269296|-1.0023503981463762|PNA|0.6552058679754706|
es:enkarterri|es|Enkarterri|43.25|-3.21|BIO|0.2799999999999998|
ar:esquel|ar|Esquel|-42.91719579225144|-71.32153957689376|EQS|0.017891190319376322|
es:fraga|es|Fraga|41.52348177174372|0.3455204626615114|REU|0.8459177196000557|
ec:reserva ecologica yarina|ec|Reserva ecologica Yarina|-0.46409655462725974|-76.84501350034004|LJ1|0.16554833202310276|
ec:santa elena|ec|Santa Elena|-2.1741550835080545|-80.85773246360047|A03|0.03954826683200246|
es:santa margalida|es|Santa Margalida|39.70162016487751|3.1032354122986874|PMI|0.4719176297817644|
ar:neuquen|ar|Neuquen|-38.9525|-68.064167|NQN|0.004859412413034114|
mx:ocotlan de morelos|mx|Ocotlan de Morelos|16.792346574360067|-96.67032853960664|OAX|0.29035374188571755|
cr:peninsula de osa-16|cr|Peninsula de Osa|8.541504118114375|-83.50219479612063|PJM|0.17854007327680652|
co:san basilio de palenque|co|San Basilio de Palenque|10.103592079139517|-75.19747065965076|CO_0136|0.28743958834806527|
es:la parra badajoz|es|La Parra, Badajoz|38.5229031|-6.6275022|QWX|0.48498239287055456|
