"Id"|"CityCode"|"CountryId"|"DescriptionES"|"DescriptionEN"|"DescriptionPT"|"Latitude"|"Longitude"|"ProvinceId"|"IsSearchable"|"IsSearchableBus"|"TimeZone"
1|"4AN "|204|Antioquía|Antioquía|Antioquia|36.2806317|35.64945422||1|0|
2|"4CD"|204|Capadocia|Capadocia|Capadócia|38.2905437|30.5592445||1|0|
3|"4KS"|204|Kusadasi|Kusadasi|Kusadasi|37.8556|27.2566||1|0|
4|"4KT"|204|Kahta|Kahta|Kahta|37.7855|38.6237||1|0|
5|"4MN"|204|Mardin|Mardin|Mardin|37.3115|40.7427||1|0|
6|"4PK"|204|Pamukkale|Pamukkale|Pamukkale|37.9158|29.1202||1|0|
7|AAE|56|Annaba|Annaba|Annaba|36.92|7.76||1|0|W. Central Africa Standard Time
8|AAG|26|Arapoti|Arapoti|Arapoti|-24.1485|-49.8191|BR_PR|1|0|E. South America Standard Time
9|AAH|51|Aachen|Aachen|Aachen|50.7741|6.0847||1|0|W. Europe Standard Time
10|AAL|53|Aalborg|Aalborg|Aalborg|57.0337|9.9166||1|0|Romance Standard Time
11|AAN|2|Al Ain|Al Ain|Al Ain|24.2305|55.74||1|0|Arabian Standard Time
12|AAQ|174|Anapa|Anapa|Anapa|44.8908|37.3239||1|0|Russian Standard Time
13|AAR|53|Aarhus|Aarhus|Aarhus|56.1572|10.2107||1|0|Romance Standard Time
14|ABC|62|Albacete|Albacete|Albacete|39.0003|-1.87|ES-AB|1|0|Romance Standard Time
15|ABE|212|Allentown|Allentown|Allentown|40.5962|-75.4756|PA|1|0|Eastern Standard Time
16|ABI|212|Abilene|Abilene|Abilene|32.4543|-99.7384|TX|1|0|Central Standard Time
17|ABJ|39|Abidjan|Abidjan|Abidjan|5.32|-4.04||1|0|Greenwich Standard Time
18|ABM|12|Bamaga|Bamaga|Bamaga|-10.8932|142.386||1|0|E. Australia Standard Time
19|ABQ|212|Albuquerque|Albuquerque|Albuquerque|35.1055|-106.6476|NM|1|0|Mountain Standard Time
20|ABR|212|Aberdeen|Aberdeen|Aberdeen|45.4647|-98.4678|SD|1|0|Central Standard Time
21|ABS|59|Abu Simbel|Abu Simbel|Abu Simbel|22.3372319|31.625799||1|0|Egypt Standard Time
22|ABT|176|Al Baha|Al Baha|Al Baha|20.0129|41.4677||1|0|Arab Standard Time
23|ABV|150|Abuja|Abuja|Abuja|9.0833|7.5333||1|0|W. Central Africa Standard Time
24|ABX|12|Albury|Albury|Albury|-36.06|146.92||1|0|AUS Eastern Standard Time
25|ABY|70|Albany|Albany|Albany|-35.0169|117.8916||1|0|Eastern Standard Time
26|ABZ|71|Aberdeen|Aberdeen|Aberdeen|57.1704|-2.08||1|0|GMT Standard Time
27|AC1|26|Arraial Do Cabo|Arraial Do Cabo|Arraial Do Cabo|-22.9678|-42.0285||1|0|
28|ACA|143|Acapulco|Acapulco|Acapulco|16.85|-99.916|MX_GRO|1|0|Central Standard Time (Mexico)
29|ACC|75|Accra|Accra|Accra|5.55|-0.2167||1|0|Greenwich Standard Time
30|ACE|62|Lanzarote, Islas Canarias|Lanzarote|Lanzarote|28.969|-13.5378|ES-LP|1|0|GMT Standard Time
31|ACH|38|Altenrhein|Altenrhein|Altenrhein|47.4898|9.5519||1|0|W. Europe Standard Time
32|ACI|71|Alderney|Alderney|Alderney|50.7497348|-1.9412327||1|0|GMT Standard Time
33|ACK|212|Nantucket|Nantucket|Nantucket|41.2723|-70.0947|MA|1|0|Eastern Standard Time
34|ACT|212|Waco|Waco|Waco|31.5597|-97.1882|TX|1|0|Central Standard Time
35|ACV|212|Eureka|Eureka|Eureka|40.7941|-124.1568|CA|1|0|Pacific Standard Time
36|ADA|204|Adana|Adana|Adana|36.995|35.32||1|0|Turkey Standard Time
37|ADD|63|Addis Ababa|Addis Ababa|Addis Ababa|9.0333|38.7||1|0|E. Africa Standard Time
38|ADE|223|Aden|Aden|Aden|12.7797|45.0095||1|0|Arab Standard Time
39|ADG|212|Adrian|Adrian|Adrian|41.8994|-84.0447|MI|1|0|Eastern Standard Time
40|ADK|212|Adak Island|Adak Island|Adak Island|51.8768|-176.6359|AK|1|0|Aleutian Standard Time
41|ADL|12|Adelaida|Adelaide|Adelaide|-34.935|138.6||1|0|Cen. Australia Standard Time
42|ADM|212|Ardmore|Ardmore|Ardmore|40.0032|-75.2947|OK|1|0|Central Standard Time
43|ADQ|212|Kodiak|Kodiak|Kodiak|57.7933|-152.4029|AK|1|0|Alaskan Standard Time
44|ADT|212|Ada OK|Ada OK|Ada OK|34.7683|-96.6689|OK|1|0|Central Standard Time
45|ADW|212|Camp Springs|Camp Springs|Camp Springs|38.8053|-76.9197|MD|1|0|Eastern Standard Time
46|ADX|71|St. Andrews|St. Andrews|St. Andrews|56.3333|-2.7833||1|0|GMT Standard Time
47|ADZ|44|San Andrés Isla|San Andres|San Andres|12.5621|-81.6903|CO25|1|0|SA Pacific Standard Time
48|AEL|212|Albert Lea|Albert Lea|Albert Lea|43.6548|-93.3643|MN|1|0|Central Standard Time
49|AER|174|Adler Sochi|Adler Sochi|Adler Sochi|43.429|39.9239||1|0|Russian Standard Time
50|AES|153|Aalesund|Aalesund|Aalesund|62.5454|6.388||1|0|W. Europe Standard Time
51|AEX|212|Alexandria|Alexandria|Alexandria|31.2923|-92.47|LA|1|0|Central Standard Time
52|AEY|98|Akureyri|Akureyri|Akureyri|65.6666|-18.1||1|0|Greenwich Standard Time
53|AFA|232|San Rafael|San Rafael|San Rafael|-34.6|-68.3333|ARM|1|0|Argentina Standard Time
54|AFL|26|Alta Floresta|Alta Floresta|Alta Floresta|-9.9|-55.91|BR_MT|1|0|Central Brazilian Standard Time
55|AGA|125|Agadir|Agadir|Agadir|30.44|-9.62||1|0|Morocco Standard Time
56|AGE|51|Wangerooge|Wangerooge|Wangerooge|53.79|7.8994||1|0|W. Europe Standard Time
57|AGF|69|Agen|Agen|Agen|44.2004|0.6333||1|0|Romance Standard Time
58|AGH|180|Angelholm|Angelholm|Angelholm|56.25|12.8667||1|0|W. Europe Standard Time
59|AGO|212|Magnolia|Magnolia|Magnolia|33.2777|-93.2261|AR|1|0|Central Standard Time
60|AGP|62|Malaga|Malaga|Malaga|36.7204|-4.42|ES-MA|1|0|Romance Standard Time
61|AGR|95|Agra|Agra|Agra|27.1704|78.015||1|0|India Standard Time
62|AGS|212|Augusta|Augusta|Augusta|33.3644|-82.0708|GA|1|0|Eastern Standard Time
63|AGT|170|Ciudad Del Este|Ciudad Del Este|Ciudad Del Este|-25.5167|-54.6161||1|0|Paraguay Standard Time
64|AGU|143|Aguascalientes|Aguascalientes|Aguascalientes|21.8795|-102.2904|MX_AGU|1|0|Central Standard Time (Mexico)
65|AHB|176|Abha|Abha|Abha|18.2301|42.5001||1|0|Arab Standard Time
66|AHI|92|Amahai|Amahai|Amahai|-3.3281|128.9405||1|0|Tokyo Standard Time
67|AHN|212|Athens|Athens|Athens|33.9508|-83.3689|GA|1|0|Eastern Standard Time
68|AHO|99|Alghero|Alghero|Alghero|40.5589|8.3181||1|0|W. Europe Standard Time
69|AHU|125|Al Hoceima|Al Hoceima|Al Hoceima|35.2433|-3.9309||1|0|Morocco Standard Time
70|AI1|26|Santo Amaro da Imperatriz|Santo Amaro da Imperatriz|Santo Amaro da Imperatriz|-27.6843|-48.7805||1|0|
71|AIA|212|Alliance|Alliance|Alliance|42.1021|-102.8768|NE|1|0|Mountain Standard Time
72|AID|212|Anderson|Anderson|Anderson|40.0875|-85.6921|IN|1|0|US Eastern Standard Time
73|AIK|212|Aiken|Aiken|Aiken|33.5303|-81.7271|SC|1|0|Eastern Standard Time
74|AIT|40|Aitutaki|Aitutaki|Aitutaki|-18.8579523|-159.7852843||1|0|Hawaiian Standard Time
75|AIY|212|Atlantic City|Atlantic City|Atlantic City|39.3795|-74.4524|NJ|1|0|
76|AIZ|212|Lake Of The Ozarks|Lake Of The Ozarks|Lake Of The Ozarks|38.2035|-92.6257|MO|1|0|Central Standard Time
77|AJA|69|Ajaccio|Ajaccio|Ajaccio|41.9271|8.7283||1|0|Romance Standard Time
78|AJR|180|Arvidsjaur|Arvidsjaur|Arvidsjaur|65.5833|19.1667||1|0|W. Europe Standard Time
79|AJU|26|Aracaju|Aracaju|Aracaju|-10.9|-37.12|BR_SE|1|0|UTC-02
80|AKJ|102|Asahikawa|Asahikawa|Asahikawa|43.755|142.38||1|0|Tokyo Standard Time
81|AKL|157|Auckland|Auckland|Auckland|-36.8481|174.763||1|0|New Zealand Standard Time
82|AKN|212|King Salmon|King Salmon|King Salmon|58.754|-156.5066|AK|1|0|Alaskan Standard Time
83|ALA|113|Almaty|Almaty|Almaty|43.325|76.915||1|0|Central Asia Standard Time
84|ALB|212|Albany|Albany|Albany|42.6664|-73.7987|NY|1|0|Eastern Standard Time
85|ALC|62|Alicante|Alicante|Alicante|38.3512|-0.4836|ES-A|1|0|Romance Standard Time
86|ALE|212|Alpine|Alpine|Alpine|30.364|-103.6651|TX|1|0|Central Standard Time
87|ALF|153|Alta|Alta|Alta|69.9666|23.2417||1|0|W. Europe Standard Time
88|ALG|56|Argel|Algiers|Algiers|36.7631|3.0506||1|0|W. Central Africa Standard Time
89|ALH|12|Albany|Albany|Albany|-35.0169|117.8916||1|0|W. Australia Standard Time
90|ALJ|226|Alexander Bay|Alexander Bay|Alexander Bay|-28.6083|16.5033||1|0|South Africa Standard Time
91|ALL|99|Albenga|Albenga|Albenga|44.05|8.2167||1|0|W. Europe Standard Time
92|ALM|212|Alamogordo|Alamogordo|Alamogordo|32.8834|-105.9627|NM|1|0|Mountain Standard Time
93|ALO|212|Waterloo|Waterloo|Waterloo|42.492|-92.3522|IA|1|0|Central Standard Time
94|ALP|193|Aleppo|Aleppo|Aleppo|36.23|37.17||1|0|Syria Standard Time
95|ALS|212|Alamosa|Alamosa|Alamosa|37.4755|-105.877|CO|1|0|Mountain Standard Time
96|ALV|1|Andorra La Vella|Andorra La Vella|Andorra La Vella|42.5|1.5165||1|0|
97|ALW|212|Walla Walla|Walla Walla|Walla Walla|46.0678|-118.3364|WA|1|0|Pacific Standard Time
98|ALX|212|Alexander City|Alexander City|Alexander City|32.924|-85.9353|AL|1|0|Central Standard Time
99|ALY|59|Alejandria|Alexandria|Alexandria|31.2|29.95||1|0|Egypt Standard Time
100|AMA|212|Amarillo|Amarillo|Amarillo|35.1999|-101.8297|TX|1|0|Central Standard Time
101|AMD|95|Ahmedabad|Ahmedabad|Ahmedabad|23.0301|72.58||1|0|India Standard Time
102|AMI|92|Mataram|Mataram|Mataram|-8.5795|116.135||1|0|Singapore Standard Time
103|AMM|101|Amman|Amman|Amman|31.95|35.9333||1|0|Jordan Standard Time
104|AMS|152|Amsterdam|Amsterdam|Amsterdam|52.35|4.9166||1|0|W. Europe Standard Time
105|AMW|212|Ames|Ames|Ames|42.0262|-93.6275|IA|1|0|Central Standard Time
106|ANA|212|Anaheim |Anaheim |Anaheim |33.839|-117.8572|CA|1|0|E. Africa Standard Time
107|ANB|212|Anniston|Anniston|Anniston|33.6713|-85.8137|AL|1|0|Central Standard Time
108|ANC|212|Anchorage|Anchorage|Anchorage|61.1508|-149.1091|AK|1|0|Alaskan Standard Time
109|AND|212|Anderson|Anderson|Anderson|34.521|-82.6477|SC|1|0|Eastern Standard Time
110|ANE|69|Angers|Angers|Angers|47.48|-0.53||1|0|Romance Standard Time
111|ANF|41|Antofagasta|Antofagasta|Antofagasta|-23.65|-70.4||1|0|Pacific SA Standard Time
112|ANG|69|Angouleme|Angouleme|Angouleme|45.65|0.15||1|0|Romance Standard Time
113|ANI|212|Aniak|Aniak|Aniak|61.5818|-159.5448|AK|1|0|Alaskan Standard Time
114|ANK|204|Ankara|Ankara|Ankara|39.9272|32.8644||1|0|Turkey Standard Time
115|ANP|212|Annapolis|Annapolis|Annapolis|38.9705|-76.5047|MD|1|0|Eastern Standard Time
116|ANR|17|Antwerp|Antwerp|Antwerp|51.2204|4.415||1|0|Romance Standard Time
117|ANU|4|Antigua|Antigua|Antigua|17.0746557|-61.8175207||1|0|SA Western Standard Time
118|ANW|212|Ainsworth|Ainsworth|Ainsworth|42.5484|-99.8575|NE|1|0|Central Standard Time
119|ANX|153|Andenes|Andenes|Andenes|69.3203|16.1428||1|0|W. Europe Standard Time
120|AOC|51|Altenburg|Altenburg|Altenburg|50.9876|12.4368||1|0|W. Europe Standard Time
121|AOH|212|Lima|Lima|Lima|40.7409|-84.1121|OH|1|0|Eastern Standard Time
122|AOI|99|Ancona|Ancona|Ancona|43.6004|13.4999||1|0|W. Europe Standard Time
123|AOJ|102|Aomori|Aomori|Aomori|40.825|140.71||1|0|Tokyo Standard Time
124|AOK|82|Karpathos|Karpathos|Karpathos|35.5065|27.213||1|0|GTB Standard Time
125|AOO|212|Altoona|Altoona|Altoona|40.5084|-78.401|PA|1|0|Eastern Standard Time
126|AOR|144|Alor Setar|Alor Setar|Alor Setar|6.1133|100.3729||1|0|Singapore Standard Time
127|APC|212|Napa|Napa|Napa|38.2982|-122.3011|CA|1|0|Pacific Standard Time
128|APF|212|Naples|Naples|Naples|26.1504|-81.7936|FL|1|0|Eastern Standard Time
129|APL|145|Nampula|Nampula|Nampula|-15.136|39.293||1|0|South Africa Standard Time
130|APN|212|Alpena|Alpena|Alpena|45.0745|-83.4383|MI|1|0|Eastern Standard Time
131|APO|44|Apartadó|Apartadó|Apartadó|7.883|-76.6259|CO02|1|0|SA Pacific Standard Time
132|APS|26|Anapolis|Anapolis|Anapolis|-16.3196|-48.96|BR_GO|1|0|E. South America Standard Time
133|APW|222|Apia|Apia|Apia|-13.8415|-171.7386||1|0|Samoa Standard Time
134|AQI|176|Qaisumah|Qaisumah|Qaisumah|28.334408|46.121315||1|0|Arab Standard Time
135|AQJ|101|Aqaba|Aqaba|Aqaba|32.729|35.7988||1|0|Jordan Standard Time
136|AQP|160|Arequipa|Arequipa|Arequipa|-16.42|-71.53||1|0|SA Pacific Standard Time
137|AR1|26|Angra dos Reis|Angra dos Reis|Angra dos Reis|-23.0|-44.3||1|0|
138|ARB|212|Ann Arbor|Ann Arbor|Ann Arbor|42.2757|-83.7312|MI|1|0|Eastern Standard Time
139|ARH|174|Arkhangelsk|Arkhangelsk|Arkhangelsk|64.5472507|40.5601553||1|0|Russian Standard Time
140|ARI|41|Arica|Arica|Arica|-18.5|-70.29||1|0|Pacific SA Standard Time
141|ARK|208|Arusha|Arusha|Arusha|-3.36|36.67||1|0|E. Africa Standard Time
142|ARM|12|Armidale|Armidale|Armidale|-30.5123|151.6675||1|0|AUS Eastern Standard Time
143|ART|212|Watertown|Watertown|Watertown|43.9734|-75.9094|NY|1|0|Eastern Standard Time
144|ARU|26|Aracatuba|Aracatuba|Araçatuba|-21.21|-50.45|BR_SP|1|0|E. South America Standard Time
145|ARV|212|Minocqua|Minocqua|Minocqua|45.8788|-89.7033|WI|1|0|Central Standard Time
146|ARW|173|Arad|Arad|Arad|46.17|21.32||1|0|GTB Standard Time
147|ASB|200|Ashgabat|Ashgabat|Ashgabat|37.95|58.3833||1|0|West Asia Standard Time
148|ASD|27|Andros Town|Andros Town|Andros Town|24.705|-77.7691||1|0|Eastern Standard Time
149|ASE|212|Aspen|Aspen|Aspen|39.1948|-106.837|CO|1|0|Mountain Standard Time
150|ASF|174|Astrakhan|Astrakhan|Astrakhan|46.3487|48.055||1|0|Astrakhan Standard Time
151|ASH|212|Nashua|Nashua|Nashua|42.7492|-71.491|NH|1|0|Eastern Standard Time
152|ASJ|102|Amami O Shima|Amami O Shima|Amami O Shima|28.2678467|129.3621196||1|0|Tokyo Standard Time
153|ASK|39|Yamoussouro|Yamoussouro|Yamoussouro|6.8184|-5.2755||1|0|Greenwich Standard Time
154|ASL|212|Marhsall|Marhsall|Marhsall|32.537|-94.3515|TX|1|0|Central Standard Time
155|ASM|61|Asmara|Asmara|Asmara|15.3333|38.9333||1|0|E. Africa Standard Time
156|ASP|12|Alice Springs|Alice Springs|Alice Springs|-23.701|133.88||1|0|AUS Central Standard Time
157|ASR|204|Kayseri|Kayseri|Kayseri|38.735|35.49||1|0|Turkey Standard Time
158|ASU|170|Asunción|Asuncion|Asuncion|-25.2964|-57.6415||1|0|Paraguay Standard Time
159|ASW|59|Aswan|Aswan|Aswan|24.0875|32.8989||1|0|Egypt Standard Time
160|ATC|27|Arthurs Town|Arthurs Town|Arthurs Town|24.6233771|-75.6702647||1|0|Eastern Standard Time
161|ATG|83|Antigua Guatemala|Antigua Guatemala|Antigua Guatemala|14.5667|-90.7333||1|0|Pakistan Standard Time
162|ATH|82|Atenas|Athens|Athens|37.9833|23.7333||1|0|GTB Standard Time
163|ATL|212|Atlanta|Atlanta|Atlanta|33.7627|-84.4231|GA|1|0|Eastern Standard Time
164|ATM|26|Altamira|Altamira|Altamira|-3.1996|-52.21|BR_PA|1|0|SA Western Standard Time
165|ATO|212|Athens|Athens|Athens|39.3269|-82.0988|OH|1|0|Eastern Standard Time
166|ATT|83|Atitlan|Atitlan|Atitlan|13.9358|-90.7047||1|0|Alaskan Standard Time
167|ATW|212|Appleton|Appleton|Appleton|44.2775|-88.3896|WI|1|0|Central Standard Time
168|ATY|212|Watertown|Watertown|Watertown|44.9096|-97.1539|SD|1|0|Central Standard Time
169|AUA|234|Aruba|Aruba|Aruba|12.5182104|-70.2475666||1|0|SA Western Standard Time
170|AUG|212|Augusta|Augusta|Augusta|44.3341|-69.7319|ME|1|0|Eastern Standard Time
171|AUH|2|Abu Dhabi|Abu Dhabi|Abu Dhabi|24.4667|54.3666||1|0|Arabian Standard Time
172|AUO|212|Auburn|Auburn|Auburn|32.6084|-85.4897|AL|1|0|Central Standard Time
173|AUQ|161|Atuona|Atuona|Atuona|-9.8|-139.0333||1|0|Marquesas Standard Time
174|AUR|69|Aurillac|Aurillac|Aurillac|44.9214|2.4373||1|0|Romance Standard Time
175|AUS|212|Austin|Austin|Austin|30.3038|-97.7545|TX|1|0|Central Standard Time
176|AUW|212|Wausau|Wausau|Wausau|44.9616|-89.6439|WI|1|0|Central Standard Time
177|AUX|26|Araguaina|Araguaina|Araguaína, TO|-7.19|-48.21|BR_TO|1|0|Tocantins Standard Time
178|AUZ|212|Aurora|Aurora|Aurora|41.7638|-88.2901|IL|1|0|Central Standard Time
179|AVI|46|Ciego De Avila|Ciego De Avila|Ciego De Avila|21.84|-78.7619||1|0|Cuba Standard Time
180|AVL|212|Asheville|Asheville|Asheville|35.5703|-82.5536|NC|1|0|Eastern Standard Time
181|AVN|69|Avignon|Avignon|Avignon|43.9454|4.8102||1|0|Romance Standard Time
182|AVP|212|Scranton|Scranton|Scranton|41.4043|-75.6649|PA|1|0|Eastern Standard Time
183|AVV|12|Avalon|Avalon|Avalon|-33.6333|151.3333||1|0|AUS Eastern Standard Time
184|AVX|212|Catalina Island|Catalina Island|Catalina Island|33.3878856|-118.4163103|CA|1|0|Pacific Standard Time
185|AXA|5|Anguilla|Anguilla|Anguilla|18.220554|-63.068615||1|0|SA Western Standard Time
186|AXD|82|Alexandroupolis|Alexandroupolis|Alexandroupolis|40.8486|25.8744||1|0|GTB Standard Time
187|AXM|44|Armenia|Armenia|Armenia|4.5343|-75.6811|CO23|1|0|SA Pacific Standard Time
188|AXN|212|Alexandria|Alexandria|Alexandria|45.8748|-95.3784|MN|1|0|Central Standard Time
189|AXT|102|Akita|Akita|Akita|39.71|140.09||1|0|Tokyo Standard Time
190|AXV|212|Wapakoneta|Wapakoneta|Wapakoneta|40.5676|-84.1917|OH|1|0|Eastern Standard Time
191|AYQ|12|Ayers Rock|Ayers Rock|Ayers Rock|-25.3569|131.0608||1|0|AUS Central Standard Time
192|AYR|12|Ayr Au|Ayr Au|Ayr Au|-19.5702|147.3995||1|0|E. Australia Standard Time
193|AYS|212|Waycross|Waycross|Waycross|31.211|-82.3578|GA|1|0|Eastern Standard Time
194|AYT|204|Antalya|Antalya|Antalya|36.89|30.7||1|0|Turkey Standard Time
195|AZD|97|Yazd|Yazd|Yazd|31.9201|54.37||1|0|Iran Standard Time
196|AZG|143|Apatzingan|Apatzingan|Apatzingan|19.08|-102.35|MX_MIC|1|0|Central Standard Time (Mexico)
197|AZO|212|Kalamazoo|Kalamazoo|Kalamazoo|42.2749|-85.5882|MI|1|0|Eastern Standard Time
198|AZS|55|Samana|Samana|Samana|19.212|-69.332||1|0|SA Western Standard Time
199|BAG|163|Baguio|Baguio|Baguio|14.0333|121.5833||1|0|Singapore Standard Time
200|BAH|20|Bahrain|Bahrain|Bahrain|26.0667|50.5577||1|0|Arab Standard Time
201|BAJ|92|Bali|Bali|Bali|-6.1228|106.9917||1|0|West Pacific Standard Time
202|BAK|13|Baku|Baku|Baku|40.3953|49.8622||1|0|Azerbaijan Standard Time
203|BAQ|44|Barranquilla|Barranquilla|Barranquilla|10.96|-74.8|CO04|1|0|SA Pacific Standard Time
204|JTC|26|Bauru|Bauru|Bauru|-22.33|-49.08|BR_SP|1|0|E. South America Standard Time
205|BAY|173|Baia Mare|Baia Mare|Baia Mare|47.6595|23.5791||1|0|GTB Standard Time
206|BB1|26|Bombinhas|Bombinhas|Bombinhas|-27.1511|-48.5078||1|0|
207|BBA|41|Balmaceda|Balmaceda|Balmaceda|-45.9088|-71.7008||1|0|Pacific SA Standard Time
208|BBC|212|Beaver Creek |Beaver Creek |Beaver Creek |30.5575204|-99.1658649|TX|1|0|Central Standard Time
209|BBH|51|Barth|Barth|Barth|54.3663|12.7255||1|0|W. Europe Standard Time
210|BBI|95|Bhubaneswar|Bhubaneswar|Bhubaneswar|20.2704|85.8274||1|0|India Standard Time
211|BBJ|51|Bitburg|Bitburg|Bitburg|49.9679|6.5273||1|0|W. Europe Standard Time
212|BBK|30|Kasane|Kasane|Kasane|-17.8096|25.15||1|0|South Africa Standard Time
213|BBR|80|Basse Terre|Basse Terre|Basse Terre|16.0|-61.7167||1|0|SA Western Standard Time
214|BBW|212|Broken Bow|Broken Bow|Broken Bow|41.4052|-99.6401|NE|1|0|Central Standard Time
215|BC1|143|Barrancas del Cobre|Barrancas del Cobre|Barrancas del Cobre|27.4521|-107.6208|MX_CHH|1|0|
216|BCB|212|Blacksburg|Blacksburg|Blacksburg|37.23|-80.4277|VA|1|0|Eastern Standard Time
217|BCE|212|Bryce|Bryce|Bryce|37.6814|-112.1588|UT|1|0|Mountain Standard Time
218|BCH|203|Baucau|Baucau|Baucau|-8.4731006|126.4553727||1|0|Tokyo Standard Time
219|BCN|62|Barcelona|Barcelona|Barcelona|41.3833|2.1834|ES-B|1|0|Romance Standard Time
220|BDA|23|Bermuda|Bermuda|Bermuda|32.3078|-64.7505||1|0|Atlantic Standard Time
221|BDB|12|Bundaberg|Bundaberg|Bundaberg|-24.8791|152.3509||1|0|E. Australia Standard Time
222|BDO|92|Bandung|Bandung|Bandung|-6.95|107.57||1|0|SE Asia Standard Time
223|BDQ|95|Vadodara|Vadodara|Vadodara|22.31|73.18||1|0|India Standard Time
224|BDR|212|Bridgeport|Bridgeport|Bridgeport|41.1909|-73.1958|CT|1|0|Eastern Standard Time
225|BDS|99|Brindisi|Brindisi|Brindisi|40.6403|17.93||1|0|W. Europe Standard Time
226|BDU|153|Bardufoss|Bardufoss|Bardufoss|69.0643084|18.5385152||1|0|W. Europe Standard Time
227|BEB|71|Benbecula|Benbecula|Benbecula|53.4633886|-2.3544565||1|0|GMT Standard Time
228|BED|212|Bedford|Bedford|Bedford|42.4906231|-71.2760089|MA|1|0|Eastern Standard Time
229|BEG|225|Belgrado|Belgrade|Belgrade|44.8186|20.468||1|0|Central Europe Standard Time
230|BEH|212|Benton Harbor|Benton Harbor|Benton Harbor|42.116|-86.4484|MI|1|0|Eastern Standard Time
231|BEL|26|Belem|Belem|Belém, PA|-1.45|-48.48|BR_PA|1|0|SA Eastern Standard Time
232|BEN|124|Benghazi|Benghazi|Benghazi|32.1167|20.0667||1|0|Libya Standard Time
233|BEQ|71|Bury St Edmunds|Bury St Edmunds|Bury St Edmunds|52.25|0.7167||1|0|GMT Standard Time
234|BER|51|Berlin|Berlin|Berlin|52.5218|13.4015||1|0|W. Europe Standard Time
235|BES|69|Brest|Brest|Brest|52.1|23.7||1|0|Romance Standard Time
236|BET|212|Bethel|Bethel|Bethel|60.7905|-161.7927|AK|1|0|Alaskan Standard Time
237|BEW|145|Beira|Beira|Beira|-19.82|34.87||1|0|South Africa Standard Time
238|BEY|115|Beirut|Beirut|Beirut|33.872|35.5097||1|0|Middle East Standard Time
239|BFD|212|Bradford|Bradford|Bradford|41.9604|-78.6413|PA|1|0|Eastern Standard Time
240|BFE|51|Bielefeld|Bielefeld|Bielefeld|52.03|8.53||1|0|W. Europe Standard Time
241|BFF|212|Scottsbluff|Scottsbluff|Scottsbluff|41.8676|-103.6618|NE|1|0|Mountain Standard Time
242|BFG|212|Bullfrog Basin|Bullfrog Basin|Bullfrog Basin|37.511905|-110.715752|UT|1|0|Mountain Standard Time
243|BFJ|65|Ba City|Ba City|Ba City|-17.5330229|177.6101869||1|0|China Standard Time
244|BFL|212|Bakersfield|Bakersfield|Bakersfield|35.3528|-119.0354|CA|1|0|Pacific Standard Time
245|BFN|226|Bloemfontein|Bloemfontein|Bloemfontein|-29.12|26.2299||1|0|South Africa Standard Time
246|BFP|212|Beaver Falls|Beaver Falls|Beaver Falls|40.762|-80.3225|PA|1|0|Eastern Standard Time
247|BFR|212|Bedford|Bedford|Bedford|38.8602|-86.4895|IN|1|0|US Eastern Standard Time
248|BFS|71|Belfast|Belfast|Belfast|54.5968|-5.9254||1|0|GMT Standard Time
249|BFT|212|Beaufort|Beaufort|Beaufort|32.4487|-80.7102|SC|1|0|Eastern Standard Time
250|BFV|198|Buri Ram|Buri Ram|Buri Ram|15.0004|103.1166||1|0|SE Asia Standard Time
251|BGA|44|Bucaramanga|Bucaramanga|Bucaramanga|7.1301|-73.1259|CO26|1|0|SA Pacific Standard Time
252|BGF|36|Bangui|Bangui|Bangui|4.3666|18.5583||1|0|W. Central Africa Standard Time
253|BGI|15|Barbados|Barbados|Barbados|13.193887|-59.543198||1|0|SA Western Standard Time
254|BGM|212|Binghamton|Binghamton|Binghamton|42.1014|-75.9092|NY|1|0|Eastern Standard Time
255|BGO|153|Bergen|Bergen|Bergen|60.391|5.3245||1|0|W. Europe Standard Time
256|BGR|212|Bangor|Bangor|Bangor|44.8322|-68.7906|ME|1|0|Eastern Standard Time
257|BGV|26|Bento Goncalves|Bento Goncalves|Bento Gonçalves|-29.1695|-51.52|BR_RS|1|0|E. South America Standard Time
258|BGW|96|Baghdad|Baghdad|Baghdad|33.3386|44.3939||1|0|Arabic Standard Time
259|BGY|99|Bergamo|Bergamo|Bergamo|45.7004|9.67||1|0|W. Europe Standard Time
260|BHB|212|Bar Harbor|Bar Harbor|Bar Harbor|44.3816|-68.2114|ME|1|0|Eastern Standard Time
261|BHE|157|Blenheim|Blenheim|Blenheim|-41.5134425|173.9612498||1|0|New Zealand Standard Time
262|BHI|232|Bahia Blanca|Bahia Blanca|Bahia Blanca|-38.74|-62.265|ARB|1|1|Argentina Standard Time
263|BHJ|95|Bhuj|Bhuj|Bhuj|23.2504|69.81||1|0|India Standard Time
264|BHK|214|Bukhara|Bukhara|Bukhara|39.78|64.43||1|0|West Asia Standard Time
265|BHL|143|Bahia De Los Angeles|Bahia De Los Angeles|Bahia De Los Angeles|28.9465|-113.5605|MX_MDC|1|0|Pacific Standard Time (Mexico)
266|BHM|212|Birmingham|Birmingham|Birmingham|33.5276|-86.7986|AL|1|0|Central Standard Time
267|BHO|95|Bhopal|Bhopal|Bhopal|23.25|77.41||1|0|India Standard Time
268|BHQ|12|Broken Hill|Broken Hill|Broken Hill|-31.95|141.4331||1|0|Cen. Australia Standard Time
269|BHS|12|Bathurst|Bathurst|Bathurst|-33.4196|149.57||1|0|AUS Eastern Standard Time
270|BHX|71|Birmingham|Birmingham|Birmingham|52.475|-1.92||1|0|GMT Standard Time
271|BHY|43|Beihai|Beihai|Beihai|25.7891|102.899||1|0|China Standard Time
272|BHZ|26|Belo Horizonte|Belo Horizonte|Belo Horizonte|-19.915|-43.915|BR_MG|1|0|E. South America Standard Time
273|BIA|69|Bastia|Bastia|Bastia|42.7032|9.45||1|0|Romance Standard Time
274|BID|212|Block Island|Block Island|Block Island|41.172137|-71.5576045|RI|1|0|Eastern Standard Time
275|BIH|212|Bishop|Bishop|Bishop|37.3665|-118.3958|CA|1|0|Pacific Standard Time
276|BII|129|Bikini Atoll|Bikini Atoll|Bikini Atoll|11.6065142|165.3768099||1|0|UTC+12
277|BIK|92|Biak|Biak|Biak|-1.1615|136.0485||1|0|Tokyo Standard Time
278|BIL|212|Billings|Billings|Billings|45.7892|-108.5498|MT|1|0|Mountain Standard Time
279|BIM|27|Bimini|Bimini|Bimini|25.7332976|-79.2729342||1|0|Eastern Standard Time
280|BIO|62|Bilbao|Bilbao|Bilbao|43.25|-2.93|ES-VZ|1|0|Romance Standard Time
281|BIQ|69|Biarritz|Biarritz|Biarritz|43.4733|-1.5616||1|0|Romance Standard Time
282|BIS|212|Bismarck|Bismarck|Bismarck|46.8127|-100.7694|ND|1|0|Central Standard Time
283|BIY|226|Bisho|Bisho|Bisho|-32.87|27.39||1|0|South Africa Standard Time
284|BJC|212|Broomfield|Broomfield|Broomfield|39.9541|-105.0526|CO|1|0|Mountain Standard Time
285|BJI|212|Bemidji|Bemidji|Bemidji|47.4798|-94.8833|MN|1|0|Central Standard Time
286|BJL|78|Banjul|Banjul|Banjul|13.4539|-16.5917||1|0|Greenwich Standard Time
287|BJM|21|Bujumbura|Bujumbura|Bujumbura|-3.3761|29.36||1|0|South Africa Standard Time
288|BJS|43|Beijing|Beijing|Beijing|39.9289|116.3883||1|0|China Standard Time
289|BJX|143|Leon|Leon|Leon|21.15|-101.7|MX_GUA|1|0|Central Standard Time (Mexico)
290|BJZ|62|Badajoz|Badajoz|Badajoz|38.8804|-6.97|ES-BA|1|0|Romance Standard Time
291|BKI|144|Kota Kinabalu|Kota Kinabalu|Kota Kinabalu|5.98|116.11||1|0|Singapore Standard Time
292|BKK|198|Bangkok|Bangkok|Bangkok|13.75|100.5166||1|0|SE Asia Standard Time
293|BKO|131|Bamako|Bamako|Bamako|12.65|-8.0||1|0|Greenwich Standard Time
294|BKW|212|Beckley|Beckley|Beckley|37.7878|-81.1841|WV|1|0|Eastern Standard Time
295|BKX|212|Brookings|Brookings|Brookings|44.3027|-96.7856|SD|1|0|Central Standard Time
296|BLA|217|Barcelona|Barcelona|Barcelona|10.1304|-64.72||1|0|Venezuela Standard Time
297|BLE|180|Borlange|Borlange|Borlange|60.4833|15.4167||1|0|W. Europe Standard Time
298|BLF|212|Bluefield|Bluefield|Bluefield|37.2602|-81.217|WV|1|0|Eastern Standard Time
299|BLH|212|Blythe|Blythe|Blythe|33.6219|-114.6177|CA|1|0|Pacific Standard Time
300|BLI|212|Bellingham|Bellingham|Bellingham|48.7534|-122.4683|WA|1|0|Pacific Standard Time
301|BLK|71|Blackpool|Blackpool|Blackpool|53.8304|-3.05||1|0|GMT Standard Time
302|BLL|53|Billund|Billund|Billund|55.7312|9.1133||1|0|Romance Standard Time
303|BLQ|99|Bolonia|Bologna|Bologna|44.5004|11.34||1|0|W. Europe Standard Time
304|BLR|95|Bangalore|Bangalore|Bangalore|12.97|77.56||1|0|India Standard Time
305|BLT|12|Blackwater|Blackwater|Blackwater|-23.5835|148.8791||1|0|E. Australia Standard Time
306|BLV|212|Belleville|Belleville|Belleville|38.515|-89.9865|IL|1|0|Central Standard Time
307|BLZ|142|Blantyre|Blantyre|Blantyre|-15.79|34.9899||1|0|South Africa Standard Time
308|BME|12|Broome|Broome|Broome|-17.9618|122.2308||1|0|W. Australia Standard Time
309|BMG|212|Bloomington|Bloomington|Bloomington|39.1637|-86.5257|IN|1|0|US Eastern Standard Time
310|BMI|212|Bloomington|Bloomington|Bloomington|40.4756|-88.9698|IL|1|0|Central Standard Time
311|BNA|212|Nashville|Nashville|Nashville|36.1714|-86.7844|TN|1|0|Central Standard Time
312|BNE|12|Brisbane|Brisbane|Brisbane|-27.455|153.0351||1|0|E. Australia Standard Time
313|BNJ|51|Bonn|Bonn|Bonn|50.7205|7.08||1|0|
314|BNK|12|Ballina|Ballina|Ballina|-28.8614|153.568||1|0|AUS Eastern Standard Time
315|BNN|153|Bronnoysund|Bronnoysund|Bronnoysund|65.4667|12.2167||1|0|W. Europe Standard Time
316|BNS|217|Barinas|Barinas|Barinas|8.6|-70.25||1|0|Venezuela Standard Time
317|BNU|26|Blumenau|Blumenau|Blumenau|-26.92|-49.09|BR_SC|1|0|E. South America Standard Time
318|BNX|14|Banja Luka|Banja Luka|Banja Luka|44.7804|17.18||1|0|Central European Standard Time
319|BOB|161|Bora Bora|Bora Bora|Bora Bora|-16.5004126|-151.7414904||1|0|Hawaiian Standard Time
320|BOC|159|Bocas Del Toro|Bocas Del Toro|Bocas Del Toro|9.3354|-82.2475||1|0|SA Pacific Standard Time
321|BOD|69|Burdeos|Burdeos|Burdeos|44.837789|-0.57918||1|0|Romance Standard Time
322|BOG|44|Bogotá|Bogota|Bogota|4.5964|-74.0833|CO34|1|0|SA Pacific Standard Time
323|BOH|71|Bournemouth|Bournemouth|Bournemouth|50.73|-1.9||1|0|GMT Standard Time
324|BOI|212|Boise|Boise|Boise|43.5991|-116.2306|ID|1|0|Mountain Standard Time
325|BOJ|19|Bourgas|Bourgas|Bourgas|42.5146|27.4746||1|0|FLE Standard Time
326|BOM|95|Bombay|Mumbai|Mumbai|19.017|72.857||1|0|India Standard Time
327|BON|8|Bonaire|Bonaire|Bonaire|12.2018902|-68.2623822||1|0|SA Western Standard Time
328|BOO|153|Bodo|Bodo|Bodo|67.2468|14.399||1|0|W. Europe Standard Time
329|BOS|212|Boston|Boston|Boston|42.3189|-71.0838|MA|1|0|Eastern Standard Time
330|BOX|12|Borroloola|Borroloola|Borroloola|-16.0708|136.3072||1|0|AUS Central Standard Time
331|BYA|44|Boyaca|Boyaca|Boyaca|5.533333|73.366667|CO36|1|0|Alaskan Standard Time
332|BPN|92|Balikpapan|Balikpapan|Balikpapan|-1.25|116.83||1|0|Singapore Standard Time
333|BPS|26|Porto Seguro|Porto Seguro|Porto Seguro|-16.4296|-39.08|BR_BA|1|0|Bahia Standard Time
334|BPT|212|Beaumont|Beaumont|Beaumont|30.0849|-94.1451|TX|1|0|Central Standard Time
335|BQB|12|Busselton|Busselton|Busselton|-33.6564|115.3487||1|0|W. Australia Standard Time
336|BQK|212|Brunswick|Brunswick|Brunswick|31.145|-81.474|GA|1|0|Eastern Standard Time
337|BQN|229|Aguadilla|Aguadilla|Aguadilla|18.42745|-67.15407|PR04|1|0|SA Western Standard Time
338|BQS|174|Blagoveshchensk|Blagoveshchensk|Blagoveshchensk|50.2666|127.5333||1|0|Yakutsk Standard Time
339|BQT|31|Brest|Brest|Brest|52.1|23.7||1|0|Belarus Standard Time
340|BRA|26|Barreiras|Barreiras|Barreiras|-12.14|-45.0|BR_BA|1|0|Bahia Standard Time
341|BRC|232|Bariloche|Bariloche|Bariloche|-41.1280133|-71.6201623|ARR|1|0|Argentina Standard Time
342|BRD|212|Brainerd|Brainerd|Brainerd|46.3551|-94.1981|MN|1|0|Central Standard Time
343|BRE|51|Bremenhaven|Bremen|Bremen|53.08|8.8||1|0|W. Europe Standard Time
344|BRF|71|Bradford|Bradford|Bradford|53.8|-1.75||1|0|
345|BRI|99|Bari|Bari|Bari|41.1142|16.8728||1|0|W. Europe Standard Time
346|BRK|12|Bourke|Bourke|Bourke|-30.1|145.9333||1|0|AUS Eastern Standard Time
347|BRL|212|Burlington|Burlington|Burlington|40.8072|-91.1249|IA|1|0|Central Standard Time
348|BRM|217|Barquisimeto|Barquisimeto|Barquisimeto|10.05|-69.3||1|0|Venezuela Standard Time
349|BRN|38|Berna|Berne|Berne|47.3518|9.3372||1|0|W. Europe Standard Time
350|BRO|212|Brownsville|Brownsville|Brownsville|25.9981|-97.4566|TX|1|0|Central Standard Time
351|BRQ|50|Brno|Brno|Brno|49.2004|16.61||1|0|Central Europe Standard Time
352|BRR|71|Barra|Barra|Barra|-13.0077199|-38.5289674||1|0|GMT Standard Time
353|BRS|71|Bristol|Bristol|Bristol|51.45|-2.5833||1|0|GMT Standard Time
354|BRT|12|Bathurst Isl|Bathurst Isl|Bathurst Isl|-11.7365444|130.4312584||1|0|AUS Central Standard Time
355|BRU|17|Bruselas|Brussels|Brussels|50.8333|4.3333||1|0|Romance Standard Time
356|BRV|51|Bremerhaven|Bremerhaven|Bremerhaven|53.5504|8.58||1|0|W. Europe Standard Time
357|BRW|212|Barrow|Barrow|Barrow|71.2905556|-156.788611|AK|1|0|Alaskan Standard Time
358|BRX|55|Barahona|Barahona|Barahona|18.2004|-71.1||1|0|SA Western Standard Time
359|BSB|26|Brasilia|Brasilia|Brasilia|-15.7833|-47.9161|BR_DF|1|0|E. South America Standard Time
360|BSC|44|Bahia Solano|Bahia Solano|Bahia Solano|6.2225516|-77.4186636|CO11|1|0|SA Pacific Standard Time
361|BSH|71|Brighton|Brighton|Brighton|50.8303|-0.17||1|0|
362|BSI|212|Blairsville|Blairsville|Blairsville|40.4325|-79.2599|PA|1|0|Singapore Standard Time
363|BSJ|12|Bairnsdale|Bairnsdale|Bairnsdale|-37.8296|147.61||1|0|AUS Eastern Standard Time
364|BSL|38|Basilea|Basel|Basel|47.5804|7.59||1|0|Romance Standard Time
365|BSQ|212|Bisbee|Bisbee|Bisbee|31.4126|-109.9179|AZ|1|0|US Mountain Standard Time
366|BSR|96|Basra|Basra|Basra|30.5135|47.8136||1|0|Arabic Standard Time
367|BTH|92|Batam|Batam|Batam|1.0456264|104.0304535||1|0|SE Asia Standard Time
368|BTJ|92|Banda Aceh|Banda Aceh|Banda Aceh|5.55|95.32||1|0|SE Asia Standard Time
369|BTL|212|Battle Creek|Battle Creek|Battle Creek|42.2985|-85.2295|MI|1|0|Eastern Standard Time
370|BTM|212|Butte|Butte|Butte|45.902|-112.6571|MT|1|0|Mountain Standard Time
371|BTR|212|Baton Rouge|Baton Rouge|Baton Rouge|30.4422|-91.1314|LA|1|0|Central Standard Time
372|BTS|185|Bratislava|Bratislava|Bratislava|48.15|17.117||1|0|Central Europe Standard Time
373|BTV|212|Burlington|Burlington|Burlington|44.4877|-73.2314|VT|1|0|Eastern Standard Time
374|BTZ|204|Bursa|Bursa|Bursa|40.2|29.07||1|0|
375|BUD|91|Budapest|Budapest|Budapest|47.5|19.0833||1|0|Central Europe Standard Time
376|BUE|232|Buenos Aires|Buenos Aires|Buenos Aires|-34.6025|-58.3975|ARC|1|0|Argentina Standard Time
377|BUF|212|Buffalo|Buffalo|Buffalo|42.9016|-78.8487|NY|1|0|Eastern Standard Time
378|CO_0904|44|Buga|Buga|Buga|3.8990966|-76.3696078|CO29|1|0|
379|BUH|173|Bucarest|Bucharest|Bucharest|44.4334|26.0999||1|0|GTB Standard Time
380|BUN|44|Buenaventura|Buenaventura|Buenaventura|3.8724|-77.0505|CO29|1|0|SA Pacific Standard Time
381|BUQ|228|Bulawayo|Bulawayo|Bulawayo|-20.17|28.58||1|0|South Africa Standard Time
382|BUR|212|Burbank|Burbank|Burbank|34.188|-118.3234|CA|1|0|Pacific Standard Time
383|BUS|73|Batumi|Batumi|Batumi|41.6|41.63||1|0|Georgian Standard Time
384|BUY|12|Bunbury|Bunbury|Bunbury|-33.3443|115.6502||1|0|W. Australia Standard Time
385|BVB|26|Boa Vista|Boa Vista|Boa Vista, RR|-0.1548|-62.0185|BR_RR|1|0|SA Western Standard Time
386|BVC|47|Boa Vista|Boa Vista|Boa Vista|16.0950108|-22.8078335||1|0|Cape Verde Standard Time
387|BVE|69|Brive La Gaill|Brive La Gaill|Brive La Gaill|45.159555|1.533937||1|0|Romance Standard Time
388|BVH|26|Vilhena|Vilhena|Vilhena|-12.7166|-60.1166|BR_RO|1|0|Central Brazilian Standard Time
389|BVO|212|Bartlesville|Bartlesville|Bartlesville|36.7356|-95.9451|OK|1|0|Central Standard Time
390|BVR|47|Brava|Brava|Brava|14.8444438|-24.7024179||1|0|Cape Verde Standard Time
391|BVX|212|Batesville|Batesville|Batesville|35.7687|-91.6226|AR|1|0|Central Standard Time
392|BWC|212|Brawley|Brawley|Brawley|32.9787|-115.53|CA|1|0|Pacific Standard Time
393|BWD|212|Brownwood|Brownwood|Brownwood|31.7124|-98.9765|TX|1|0|Central Standard Time
394|BWE|51|Braunschweig|Braunschweig|Braunschweig|52.25|10.5||1|0|W. Europe Standard Time
395|BWF|71|Barrow In Furness|Barrow In Furness|Barrow In Furness|54.1167|-3.2333||1|0|GMT Standard Time
396|BWG|212|Bowling Green|Bowling Green|Bowling Green|36.9725|-86.4371|KY|1|0|Central Standard Time
397|BWI|212|Baltimore|Baltimore|Baltimore|39.3051|-76.6144|MD|1|0|Eastern Standard Time
398|BWN|24|Bandar Seri|Bandar Seri Begawan|Bandar Seri Begawan|4.8833|114.9333||1|0|Singapore Standard Time
399|BWQ|12|Brewarrina|Brewarrina|Brewarrina|-29.9607|146.8599||1|0|AUS Eastern Standard Time
400|BWT|12|Burnie|Burnie|Burnie|-41.0666|145.9167||1|0|Tasmania Standard Time
401|BWU|12|Bankstown|Bankstown|Bankstown|-33.9167|151.0333||1|0|AUS Eastern Standard Time
402|BXN|204|Bodrum|Bodrum|Bodrum|37.0383|27.4292||1|0|Turkey Standard Time
403|BXS|212|Borrego Springs|Borrego Springs|Borrego Springs|33.241|-116.3571|CA|1|0|Pacific Standard Time
404|BYI|212|Burley|Burley|Burley|42.5371|-113.7933|ID|1|0|Mountain Standard Time
405|BYU|51|Bayreuth|Bayreuth|Bayreuth|49.9478|11.5789||1|0|W. Europe Standard Time
406|BYW|212|Blakely Island|Blakely Island|Blakely Island|48.5616971|-122.8015125|WA|1|0|Pacific Standard Time
407|BZC|26|Buzios|Buzios Airport|Buzios Aeroporto|-22.7563906|-41.889042|BR_RJ|1|0|E. South America Standard Time
408|BZE|32|Belice|Belize City|Belize City|17.4987|-88.1884||1|0|Central America Standard Time
409|BZG|165|Bydgoszcz|Bydgoszcz|Bydgoszcz|53.1204|18.01||1|0|Central European Standard Time
410|BZH|228|Bumi Hills|Bumi Hills|Bumi Hills|-16.8167|28.35||1|0|South Africa Standard Time
411|BZI|204|Balikesir|Balikesir|Balikesir|39.6504|27.89||1|0|Turkey Standard Time
412|BZN|212|Bozeman|Bozeman|Bozeman|45.6828|-111.0545|MT|1|0|Mountain Standard Time
413|BZO|99|Bolzano|Bolzano|Bolzano|46.5004|11.36||1|0|W. Europe Standard Time
414|BZR|69|Beziers|Beziers|Beziers|43.3505|3.21||1|0|Romance Standard Time
415|BZT|212|Brazoria|Brazoria|Brazoria|29.0454|-95.5668|TX|1|0|Central Standard Time
416|BZV|37|Brazzaville|Brazzaville|Brazzaville|-4.2592|15.2847||1|0|W. Central Africa Standard Time
417|CAC|26|Cascavel|Cascavel|Cascavel, PR|-25.4|-51.5333|BR_PR|1|0|E. South America Standard Time
418|CAD|212|Cadillac|Cadillac|Cadillac|44.2494|-85.4137|MI|1|0|Eastern Standard Time
419|CAE|212|Columbia|Columbia|Columbia|34.0366|-80.9043|SC|1|0|Eastern Standard Time
420|CAG|99|Cagliari|Cagliari|Cagliari|39.2224|9.104||1|0|W. Europe Standard Time
421|CAI|59|Cairo|Cairo|Cairo|30.05|31.25||1|0|Egypt Standard Time
422|CAK|212|Akron|Akron|Akron|41.0802|-81.5219|OH|1|0|Eastern Standard Time
423|CAL|71|Puerto Caldera|Campbelltown|Campbelltown|55.4333|-5.6333||1|0|GMT Standard Time
424|CAM|25|Camiri|Camiri|Camiri|-20.05|-63.52||1|0|SA Western Standard Time
425|CAN|43|Guangzhou|Guangzhou|Guangzhou|23.145|113.325||1|0|China Standard Time
426|CAP|90|Cap Haitien|Cap Haitien|Cap Haitien|19.7592|-72.2125||1|0|Haiti Standard Time
427|CAS|125|Casablanca|Casablanca|Casablanca|33.6|-7.6164||1|0|Morocco Standard Time
428|CAU|26|Caucedo|Caruaru|Caruaru|-8.28|-35.98|BR_PE|1|0|SA Eastern Standard Time
429|CAW|26|Campos|Campos|Campos|-21.75|-41.32|BR_CE|1|0|E. South America Standard Time
430|CAX|71|Carlisle|Carlisle|Carlisle|54.88|-2.93||1|0|GMT Standard Time
431|CAY|74|Cayenne|Cayenne|Cayenne|4.933|-52.33||1|0|SA Eastern Standard Time
432|CAZ|12|Cobar|Cobar|Cobar|-31.4967|145.8344||1|0|AUS Eastern Standard Time
433|CB1|26|Camboriu|Camboriu|Camboriu|-27.0244|-48.6462||1|0|
434|CBB|25|Cochabamba|Cochabamba|Cochabamba|-17.41|-66.17||1|0|SA Western Standard Time
435|CBE|212|Cumberland|Cumberland|Cumberland|39.6515|-78.7585|MD|1|0|Eastern Standard Time
436|CBF|212|Council Bluffs|Council Bluffs|Council Bluffs|41.2369|-95.8518|IA|1|0|Central Standard Time
437|CBG|71|Cambridge|Cambridge|Cambridge|52.2004|0.1166||1|0|GMT Standard Time
438|CBK|212|Colby|Colby|Colby|39.3852|-101.0455|KS|1|0|Central Standard Time
439|CBL|217|Ciudad Bolivar|Ciudad Bolivar|Ciudad Bolivar|8.1|-63.6||1|0|Venezuela Standard Time
440|CBN|92|Cirebon|Cirebon|Cirebon|-6.7333|108.5666||1|0|SE Asia Standard Time
441|CBP|168|Coimbra|Coimbra|Coimbra|40.2004|-8.4167||1|0|GMT Standard Time
442|CBR|12|Camberra|Canberra|Canberra|-35.283|149.129||1|0|AUS Eastern Standard Time
443|CBS|217|Cabimas|Cabimas|Cabimas|10.43|-71.45||1|0|Venezuela Standard Time
444|CCC|46|Cayo Coco|Cayo Coco|Cayo Coco|22.5090128|-78.4069732||1|0|Cuba Standard Time
445|CCE|80|Saint Martin|Saint Martin|Saint Martin|18.0708298|-63.0500809||1|0|Egypt Standard Time
446|CCF|69|Carcassonne|Carcassonne|Carcassonne|43.2135|2.3516||1|0|Romance Standard Time
447|CCJ|95|Kozhikode|Kozhikode|Kozhikode|11.2504|75.77||1|0|India Standard Time
448|CCM|26|Criciuma|Criciuma|Criciuma|-28.68|-49.39|BR_SC|1|0|E. South America Standard Time
449|CCP|41|Concepcion|Concepcion|Concepcion|-36.83|-73.05||1|0|Pacific SA Standard Time
450|CCR|212|Concord|Concord|Concord|37.9722|-122.0016|CA|1|0|Pacific Standard Time
451|CCS|217|Caracas|Caracas|Caracas|10.501|-66.917||1|0|Venezuela Standard Time
452|CCU|95|Calcuta|Kolkata|Kolkata|22.495|88.3247||1|0|India Standard Time
453|CDA|12|Cooinda|Cooinda|Cooinda|-27.5333|152.9833||1|0|AUS Central Standard Time
454|CDC|212|Cedar City|Cedar City|Cedar City|37.6834|-113.0957|UT|1|0|Mountain Standard Time
455|CDD|88|Cauquira|Cauquira|Cauquira|15.3167|-83.5833||1|0|Central America Standard Time
456|CDH|212|Camden|Camden|Camden|39.9361|-75.1072|AR|1|0|Central Standard Time
457|CDI|26|Cachoeiro De Itapemirim|Cachoeiro De Itapemirim|Cachoeiro de Itapemirim|-20.85|-41.13|BR_ES|1|0|E. South America Standard Time
458|CDR|212|Chadron|Chadron|Chadron|42.826|-103.0024|NE|1|0|Mountain Standard Time
459|CDV|212|Cordova|Cordova|Cordova|60.5361|-145.6131|AK|1|0|Alaskan Standard Time
460|CDW|212|Caldwell|Caldwell|Caldwell|40.839|-74.2777|NJ|1|0|Eastern Standard Time
461|CDZ|62|Cadiz|Cadiz|Cadiz|36.535|-6.225|ES-CD|1|0|
462|CEB|163|Cebu|Cebu|Cebu|10.32|123.9001||1|0|Singapore Standard Time
463|CEC|212|Crescent City|Crescent City|Crescent City|41.7728|-124.1902|CA|1|0|Pacific Standard Time
464|CED|12|Ceduna|Ceduna|Ceduna|-32.1296|133.6844||1|0|Cen. Australia Standard Time
465|CEG|71|Chester|Chester|Chester|53.2|-2.92||1|0|GMT Standard Time
466|CEH|142|Chelinda|Chelinda|Chelinda|-10.5814187|33.8048381||1|0|South Africa Standard Time
467|CEI|198|Chiang Rai|Chiang Rai|Chiang Rai|19.9119|99.8265||1|0|SE Asia Standard Time
468|CEK|174|Chelyabinsk|Chelyabinsk|Chelyabinsk|55.155|61.4387||1|0|Ekaterinburg Standard Time
469|CEN|143|Ciudad Obregon|Ciudad Obregon|Ciudad Obregon|27.4666|-109.925|MX_SON|1|0|US Mountain Standard Time
470|CEQ|69|Cannes|Cannes|Cannes|43.5497|6.9943||1|0|Romance Standard Time
471|CER|69|Cherbourg|Cherbourg|Cherbourg|49.6504|-1.65||1|0|Romance Standard Time
472|CES|12|Cessnock|Cessnock|Cessnock|-32.8321|151.3562||1|0|AUS Eastern Standard Time
473|CET|69|Cholet|Cholet|Cholet|47.0608|-0.8755||1|0|Romance Standard Time
474|CEU|212|Clemson|Clemson|Clemson|34.6841|-82.8124|SC|1|0|Eastern Standard Time
475|CEY|212|Murray|Murray|Murray|36.6146|-88.3204|KY|1|0|Central Standard Time
476|CEZ|212|Cortez|Cortez|Cortez|37.3498|-108.5769|CO|1|0|Mountain Standard Time
477|CFB|26|Cabo Frio|Cabo Frio|Cabo Frio|-22.89|-42.04|BR_RJ|1|0|E. South America Standard Time
478|CFE|69|Clermont Ferrand|Clermont Ferrand|Clermont Ferrand|45.78|3.08||1|0|Romance Standard Time
479|CFG|46|Cienfuegos|Cienfuegos|Cienfuegos|22.1444|-80.4403||1|0|Cuba Standard Time
480|CFN|93|Donegal|Donegal|Donegal|54.65|-8.1167||1|0|GMT Standard Time
481|CFQ|33|Creston|Creston|Creston|49.1|-116.5167||1|0|US Mountain Standard Time
482|CFR|69|Caen|Caen|Caen|49.1838|-0.35||1|0|Romance Standard Time
483|CFS|12|Coffs Harbour|Coffs Harbour|Coffs Harbour|-30.3071|153.1123||1|0|AUS Eastern Standard Time
484|CFU|82|Kerkyra|Kerkyra|Kerkyra|39.6154|19.9147||1|0|GTB Standard Time
485|CGA|212|Craig|Craig|Craig|55.4924|-133.1146|AK|1|0|Alaskan Standard Time
486|CGB|26|Cuiaba|Cuiaba|Cuiabá|-15.5696|-56.085|BR_MT|1|0|Central Brazilian Standard Time
487|CGI|212|Cape Girardeau|Cape Girardeau|Cape Girardeau|37.3107|-89.5595|MO|1|0|Central Standard Time
488|CGN|51|Colonia/Bonn|Cologne|Cologne|50.93|6.95||1|0|W. Europe Standard Time
489|CGO|43|Zhengzhou|Zhengzhou|Zhengzhou|34.755|113.6651||1|0|China Standard Time
490|CGP|16|Chittagong|Chittagong|Chittagong|22.33|91.8||1|0|Bangladesh Standard Time
491|CGQ|43|Changchun|Changchun|Changchun|43.865|125.34||1|0|China Standard Time
492|CGR|26|Campo Grande|Campo Grande|Campo Grande, MS|-20.45|-54.6166|BR_MS|1|0|Central Brazilian Standard Time
493|CGY|163|Cagayan|Cagayan|Cagayan|8.4508|124.6853||1|0|Singapore Standard Time
494|CHA|212|Chattanooga|Chattanooga|Chattanooga|35.0657|-85.2488|TN|1|0|Eastern Standard Time
495|CHC|157|Christchurch|Christchurch|Christchurch|-43.535|172.63||1|0|New Zealand Standard Time
496|CHD|212|Chandler|Chandler|Chandler|33.2828|-111.8517|AZ|1|0|
497|CHO|212|Charlottesville|Charlottesville|Charlottesville|38.0374|-78.4856|VA|1|0|Eastern Standard Time
498|CHQ|82|Chania|Chania|Chania|35.5122|24.0156||1|0|GTB Standard Time
499|CHR|69|Chateauroux|Chateauroux|Chateauroux|46.8125|1.6936||1|0|Romance Standard Time
500|CHS|212|Charleston|Charleston|Charleston|32.8137|-79.9643|SC|1|0|Eastern Standard Time
501|CHX|159|Changuinola|Changuinola|Changuinola|9.4409|-82.5185||1|0|SA Pacific Standard Time
502|CIC|212|Chico|Chico|Chico|39.7568|-121.816|CA|1|0|Pacific Standard Time
503|CID|212|Cedar Rapids|Cedar Rapids|Cedar Rapids|41.9667|-91.6781|IA|1|0|Central Standard Time
504|CIG|212|Craig|Craig|Craig|40.517|-107.5558|CO|1|0|Mountain Standard Time
505|CIO|170|Corinto|Concepcion|Concepción|-36.83|-73.05||0|0|Paraguay Standard Time
506|CIT|113|Shimkent|Shimkent|Shimkent|42.32|69.595||1|0|Central Asia Standard Time
507|CIW|54|Canovan Island|Canovan Island|Canovan Island|12.7157889|-61.40134499999999||1|0|SA Western Standard Time
508|CIX|160|Chiclayo|Chiclayo|Chiclayo|-6.7629|-79.8366||1|0|SA Pacific Standard Time
509|CJB|95|Coimbatore|Coimbatore|Coimbatore|11.0|76.95||1|0|India Standard Time
510|CJC|41|Calama|Calama|Calama|-22.45|-68.92||1|0|Pacific SA Standard Time
511|CJJ|110|Cheongju|Cheongju|Cheongju|36.6439|127.5012||1|0|Korea Standard Time
512|CJM|198|Chumphon|Chumphon|Chumphon|10.5127|99.1872||1|0|SE Asia Standard Time
513|CJN|212|El Cajon|El Cajon|El Cajon|32.8017|-116.9604|CA|1|0|SE Asia Standard Time
514|CJS|143|Ciudad Juarez|Ciudad Juarez|Ciudad Juarez|31.6904|-106.49|MX_CHH|1|0|Mountain Standard Time
515|CJU|110|Jeju City|Jeju City|Jeju City|33.5101|126.5219||1|0|Korea Standard Time
516|CKB|212|Clarksburg|Clarksburg|Clarksburg|39.2862|-80.323|WV|1|0|Eastern Standard Time
517|CKG|43|Chongqing|Chongqing|Chongqing|29.565|106.595||1|0|China Standard Time
518|CKM|212|Clarksdale|Clarksdale|Clarksdale|34.1971|-90.5729|MS|1|0|Central Standard Time
519|CKS|26|Carajas|Carajas|Carajas|-2.9381|-51.8616|BR_PA|1|0|Tocantins Standard Time
520|CKV|212|Clarksville|Clarksville|Clarksville|36.5696|-87.3428|TN|1|0|Central Standard Time
521|CKY|79|Conakry|Conakry|Conakry|9.5315|-13.6802||1|0|Greenwich Standard Time
522|CKZ|204|Canakkale|Canakkale|Canakkale|40.1459|26.4064||1|0|Turkey Standard Time
524|CLC|212|Clear Lake City|Clear Lake City|Clear Lake City|29.5552|-95.1152|TX|1|0|
525|CLD|212|Carlsbad|Carlsbad|Carlsbad|33.1246|-117.2836|CA|1|0|Pacific Standard Time
526|CLE|212|Cleveland|Cleveland|Cleveland|41.4766|-81.6805|OH|1|0|Eastern Standard Time
527|CLL|212|Callao|College Station|College Station|30.5857|-96.296|TX|1|0|Central Standard Time
528|CLM|212|Port Angeles|Port Angeles|Port Angeles|48.1141|-123.4565|WA|1|0|Pacific Standard Time
529|CLO|44|Cali|Cali|Cali|3.4|-76.5|CO29|1|0|SA Pacific Standard Time
530|CLQ|143|Colima|Colima|Colima|19.23|-103.72|MX_COL|1|0|Central Standard Time (Mexico)
531|CLT|212|Charlotte|Charlotte|Charlotte|35.208|-80.8308|NC|1|0|Eastern Standard Time
532|CLU|212|Columbus|Columbus|Columbus|39.2094|-85.9178|IN|1|0|US Eastern Standard Time
533|CLY|69|Calvi|Calvi|Calvi|42.5671|8.7573||1|0|Romance Standard Time
534|CMB|118|Colombo|Colombo|Colombo|6.932|79.8578||1|0|Sri Lanka Standard Time
535|CME|143|Ciudad Del Carmen|Ciudad Del Carmen|Ciudad Del Carmen|18.6537|-91.8245|MX_CAM|1|0|Central Standard Time (Mexico)
536|CMF|69|Chambery|Chambery|Chambery|45.5646|5.9265||1|0|Romance Standard Time
537|CMG|26|Corumba|Corumba|Corumbá|-19.016|-57.65|BR_MS|1|0|Central Brazilian Standard Time
538|CMH|212|Columbus|Columbus|Columbus|39.9859|-82.9852|OH|1|0|Eastern Standard Time
539|CMI|212|Champaign|Champaign|Champaign|40.1148|-88.2731|IL|1|0|Central Standard Time
540|CMQ|12|Clermont|Clermont|Clermont|-22.8241|147.6364||1|0|E. Australia Standard Time
541|CMR|69|Colmar|Colmar|Colmar|48.0787|7.3554||1|0|Romance Standard Time
542|CMV|157|Coromandel|Coromandel|Coromandel|-36.7538|175.5039||1|0|New Zealand Standard Time
543|CMW|46|Camaguey|Camaguey|Camaguey|21.3808|-77.9169||1|0|Cuba Standard Time
544|CMX|212|Houghton|Houghton|Houghton|47.6609|-122.206|MI|1|0|Eastern Standard Time
545|CMY|212|Sparta|Sparta|Sparta|43.9403|-90.8084|WI|1|0|Central Standard Time
546|CNB|12|Coonamble|Coonamble|Coonamble|-30.9539|148.3888||1|0|AUS Eastern Standard Time
547|CND|173|Constanta|Constanta|Constanta|44.2027|28.61||1|0|GTB Standard Time
548|CNG|69|Cognac|Cognac|Cognac|45.7|-0.3333||1|0|Romance Standard Time
549|CNJ|12|Cloncurry|Cloncurry|Cloncurry|-20.7|140.5||1|0|E. Australia Standard Time
550|CNM|212|Carlsbad|Carlsbad|Carlsbad|32.4064|-104.2385|NM|1|0|Mountain Standard Time
551|CNQ|232|Corrientes|Corrientes|Corrientes|-27.49|-58.81|ARW|1|0|Argentina Standard Time
552|CNS|12|Cairns|Cairns|Cairns|-16.8878|145.7633||1|0|E. Australia Standard Time
553|CNX|198|Chiang Mai|Chiang Mai|Chiang Mai|18.8|98.98||1|0|SE Asia Standard Time
554|CNY|212|Moab|Moab|Moab|38.57|-109.5476|UT|1|0|Mountain Standard Time
555|CO1|143|Cordoba|Cordoba|Cordoba|19.4845|-99.3233|MX_VER|1|0|
556|COD|212|Cody|Cody|Cody|44.5212|-109.055|WY|1|0|Mountain Standard Time
557|COE|212|Coeur D Alene|Coeur D Alene|Coeur D Alene|47.7041|-116.7928|ID|1|0|Pacific Standard Time
558|COI|212|Cocoa Metro Area|Cocoa Metro Area|Cocoa Metro Area|39.997387|-74.0694958|FL|1|0|Eastern Standard Time
559|COJ|12|Coonabarabrn|Coonabarabrn|Coonabarabrn|-31.2773|149.279||1|0|AUS Eastern Standard Time
560|COK|95|Kochi|Kochi|Kochi|10.015|76.2239||1|0|India Standard Time
561|COO|22|Cotonou|Cotonou|Cotonou|6.4|2.52||1|0|W. Central Africa Standard Time
562|COR|232|Cordoba|Cordoba|Cordoba|-31.4|-64.1823|ARX|1|0|Argentina Standard Time
563|COS|212|Colorado Springs|Colorado Springs|Colorado Springs|38.8673|-104.7605|CO|1|0|Mountain Standard Time
564|COU|212|Columbia|Columbia|Columbia|38.9475|-92.3263|MO|1|0|Central Standard Time
565|CP1|143|Chignahuapan|Chignahuapan|Chignahuapan|19.8387|-98.0317|MX_PUE|1|0|
566|CPB|44|Capurgana|Capurgana|Capurgana|8.6381|-77.3461|CO11|1|0|SA Pacific Standard Time
567|CPC|232|San Martin de los Andes|San Martin de los Andes|San Martin de los Andes|-40.1552|-71.351|ARQ|1|1|Argentina Standard Time
568|CPD|12|Coober Pedy|Coober Pedy|Coober Pedy|-28.9974|134.7586||1|0|Cen. Australia Standard Time
569|CPE|143|Campeche|Campeche|Campeche|19.83|-90.5|MX_YUC|1|0|Central Standard Time (Mexico)
570|CPH|53|Copenhague|Copenhagen|Copenhagen|55.6760968|12.5683371||1|0|Romance Standard Time
571|CPO|41|Copiapo|Copiapo|Copiapo|-27.36|-70.34||1|0|Pacific SA Standard Time
572|CPQ|26|Campinas|Campinas|Campinas|-22.9|-47.1|BR_SP|1|0|
573|CPR|212|Casper|Casper|Casper|42.843|-106.3205|WY|1|0|Mountain Standard Time
574|CPT|226|Ciudad Del Cabo|Cape Town|Cape Town|-33.92|18.435||1|0|South Africa Standard Time
575|CPV|26|Campina Grande|Campina Grande|Campina Grande|-7.23|-35.88|BR_PB|1|0|SA Eastern Standard Time
576|CQD|97|Shahre Kord|Shahre Kord|Shahre Kord|32.3282386|50.8768541||1|0|Iran Standard Time
577|CQF|69|Calais|Calais|Calais|50.9504|1.8333||1|0|Romance Standard Time
578|CRD|232|Comodoro Rivadavia|Comodoro Rivadavia|Comodoro Rivadavia|-45.87|-67.5|ARU|1|1|Argentina Standard Time
579|CRP|212|Corpus Christi|Corpus Christi|Corpus Christi|27.7173|-97.3822|TX|1|0|Central Standard Time
580|CRV|99|Crotone|Crotone|Crotone|39.0833|17.1233||1|0|W. Europe Standard Time
581|CRW|212|Charleston|Charleston|Charleston|38.3484|-81.6323|WV|1|0|Eastern Standard Time
582|CRX|212|Corinth|Corinth|Corinth|34.9474|-88.5143|MS|1|0|Central Standard Time
583|CRZ|200|Turkmenabad|Turkmenabad|Turkmenabad|39.11|63.58||1|0|West Asia Standard Time
584|CS1|26|Costa Do Sauipe|Costa Do Sauipe|Costa do Sauípe|-12.4401026|-37.9312626||1|0|
585|CSF|69|Creil|Creil|Creil|49.2567|2.4848||1|0|Romance Standard Time
586|CSG|212|Columbus|Columbus|Columbus|32.51|-84.8771|GA|1|0|Eastern Standard Time
587|CSI|12|Casino|Casino|Casino|-28.8582|153.0475||1|0|AUS Eastern Standard Time
588|CSL|212|San Luis Obispo|San Luis Obispo|San Luis Obispo|35.2671|-120.6689|CA|1|0|
589|CSM|212|Clinton|Clinton|Clinton|35.5058|-98.9724|OK|1|0|Central Standard Time
590|CSN|212|Carson City|Carson City|Carson City|39.1512|-119.7474|NV|1|0|Pacific Standard Time
591|CSX|43|Changsha|Changsha|Changsha|28.2|112.97||1|0|China Standard Time
592|CTA|99|Catania|Catania|Catania|37.5|15.08||1|0|W. Europe Standard Time
593|CTC|232|Catamarca|Catamarca|Catamarca|-28.47|-65.78|ARK|1|0|Argentina Standard Time
594|CTG|44|Cartagena|Cartagena|Cartagena|10.3997|-75.5144|CO35|1|0|SA Pacific Standard Time
595|CTL|12|Charleville|Charleville|Charleville|-26.4|146.25||1|0|E. Australia Standard Time
596|CTM|143|Chetumal|Chetumal|Chetumal|18.5|-88.3|MX_ROO|1|0|Central Standard Time (Mexico)
597|CTU|43|Chengdu|Chengdu|Chengdu|30.67|104.07||1|0|China Standard Time
598|CTW|212|Cape Town|Cottonwood|Cottonwood|34.7194|-112.0014|AZ|1|0|US Mountain Standard Time
599|CUA|143|Ciudad Constitucion|Ciudad Constitucion|Ciudad Constitucion|25.04|-111.66|MX_BCS|1|0|Mountain Standard Time (Mexico)
600|CUC|44|Cúcuta|Cúcuta|Cúcuta|7.92|-72.52|CO21|1|0|SA Pacific Standard Time
601|CUE|57|Cuenca|Cuenca|Cuenca|-2.9|-79.0||1|0|SA Pacific Standard Time
602|CUF|99|Cuneo|Cuneo|Cuneo|44.3833|7.5333||1|0|W. Europe Standard Time
603|CUG|12|Cudal|Cudal|Cudal|-33.2856|148.7407||1|0|AUS Eastern Standard Time
604|CUL|143|Culiacan|Culiacan|Culiacan|24.83|-107.38|MX_SIN|1|0|Mountain Standard Time (Mexico)
605|CUN|143|Cancun|Cancún|Cancún|21.17|-86.83|MX_ROO|1|0|Eastern Standard Time (Mexico)
606|CUR|238|Curaçao|Curacao|Curacao|12.16957|-68.99002||1|0|SA Western Standard Time
607|CUS|212|Columbus|Columbus|Columbus|31.8245|-107.6398|NM|1|0|Mountain Standard Time
608|CUU|143|Chihuahua|Chihuahua|Chihuahua|28.645|-106.085|MX_CHH|1|0|Mountain Standard Time (Mexico)
609|CUZ|160|Cusco|Cusco|Cusco|-13.525|-71.9722||1|0|SA Pacific Standard Time
610|CV2|143|Coatepec|Coatepec|Coatepec|19.4760988|-97.0286439|MX_VER|1|0|
611|CO_9001|44|Cabo de la Vela|Cabo de la Vela|Cabo de la Vela|12.1954748|-72.16472850000001|CO17|1|0|
612|CVF|69|Courchevel|Courchevel|Courchevel|45.4175|6.6511||1|0|Romance Standard Time
613|CVG|212|Cincinati|Cincinnati|Cincinnati|39.1412|-84.506|OH|1|0|Eastern Standard Time
614|CVJ|143|Cuernavaca|Cuernavaca|Cuernavaca|18.9211|-99.24|MX_MOR|1|0|Central Standard Time (Mexico)
615|CVM|143|Ciudad Victoria|Ciudad Victoria|Ciudad Victoria|23.72|-99.13|MX_TAM|1|0|Central Standard Time (Mexico)
616|CVN|212|Clovis|Clovis|Clovis|36.8283|-119.6851|NM|1|0|Mountain Standard Time
617|CVO|212|Corvallis|Corvallis|Corvallis|44.5697|-123.2781|OR|1|0|Pacific Standard Time
618|CVQ|12|Carnarvon|Carnarvon|Carnarvon|-24.8998|113.6501||1|0|W. Australia Standard Time
619|CVT|71|Coventry|Coventry|Coventry|52.4204|-1.5||1|0|GMT Standard Time
620|CVU|168|Corvo Island|Corvo Island|Corvo Island|39.6667|-31.1333||1|0|Azores Standard Time
621|CWB|26|Curitiba|Curitiba|Curitiba|-25.42|-49.32|BR_PR|1|0|E. South America Standard Time
622|CWI|212|Clinton|Clinton|Clinton|41.8434|-90.2408|IA|1|0|Central Standard Time
623|CWL|71|Cardiff|Cardiff|Cardiff|51.5|-3.225||1|0|GMT Standard Time
624|CWT|12|Cowra|Cowra|Cowra|-33.8296|148.68||1|0|AUS Eastern Standard Time
625|CXJ|26|Caxias Do Sul|Caxias Do Sul|Caxias Do Sul|-29.18|-51.17|BR_RS|1|0|E. South America Standard Time
626|CXL|212|Calexico|Calexico|Calexico|32.6849|-115.4944|CA|1|0|Pacific Standard Time
627|CXO|212|Conroe|Conroe|Conroe|30.3174|-95.4705|TX|1|0|Central Standard Time
628|CXP|92|Cilacap|Cilacap|Cilacap|-7.7188|109.0154||1|0|SE Asia Standard Time
629|CY1|143|Celestin|Celestin|Celestin|20.8592697|-90.428812|MX_MEX|1|0|
630|CYB|112|Cayman Brac|Cayman Brac|Cayman Brac|19.7235328|-79.8016569||1|0|SA Pacific Standard Time
631|CYO|46|Cayo Largo Del Sur|Cayo Largo Del Sur|Cayo Largo Del Sur|21.6117789|-81.5288929||1|0|Cuba Standard Time
632|CYR|213|Colonia|Colonia|Colonia|-34.43952|-57.83544|UY_COL|1|0|Montevideo Standard Time
633|CYS|212|Cheyenne|Cheyenne|Cheyenne|41.1418|-104.7943|WY|1|0|Mountain Standard Time
634|CZA|143|Chichen Itza|Chichen Itza|Chichen Itza|20.6667|-88.5667|MX_ROO|1|0|Central Standard Time (Mexico)
635|CZE|217|Coro|Coro|Coro|11.42|-69.68||1|0|Venezuela Standard Time
636|CZL|56|Constantine|Constantine|Constantine|36.36|6.5999||1|0|W. Central Africa Standard Time
637|CZM|143|Cozumel|Cozumel|Cozumel|20.51|-86.95|MX_ROO|1|0|Eastern Standard Time (Mexico)
638|CZS|26|Cruzeiro Do Sul|Cruzeiro Do Sul|Cruzeiro Do Sul|-7.63|-72.67|BR_AC|1|0|SA Pacific Standard Time
639|DAB|212|Daytona Beach|Daytona Beach|Daytona Beach|29.1959|-81.0935|FL|1|0|Eastern Standard Time
640|DAC|16|Dhaka|Dhaka|Dhaka|23.7231|90.4086||1|0|Bangladesh Standard Time
641|DAD|219|Da Nang|Da Nang|Da Nang|21.7122|105.355||1|0|SE Asia Standard Time
642|DAK|59|Dakhla Oasis|Dakhla Oasis|Dakhla Oasis|25.516667|29.166667||1|0|Egypt Standard Time
643|DAM|193|Damasco|Damascus|Damascus|33.5|36.3||1|0|Syria Standard Time
644|DAN|212|Danville|Danville|Danville|36.5831|-79.4088|VA|1|0|Eastern Standard Time
645|DAR|208|Dar Es Salaam|Dar Es Salaam|Dar Es Salaam|-6.8|39.2683||1|0|E. Africa Standard Time
646|DAV|159|David|David|David|8.4333|-82.4333||1|0|SA Pacific Standard Time
647|DAY|212|Dayton|Dayton|Dayton|39.7798|-84.1999|OH|1|0|Eastern Standard Time
648|DBN|212|Dublin|Dublin|Dublin|32.5358|-82.9279|GA|1|0|Eastern Standard Time
649|DBO|12|Dubbo|Dubbo|Dubbo|-32.26|148.5973||1|0|AUS Eastern Standard Time
650|DBQ|212|Dubuque|Dubuque|Dubuque|42.5007|-90.7064|IA|1|0|Central Standard Time
651|DBV|89|Dubrobvnik|Dubrovnik|Dubrovnik|42.6609|18.0914||1|0|Central European Standard Time
652|DBY|12|Dalby|Dalby|Dalby|-27.1939|151.2657||1|0|E. Australia Standard Time
653|DCM|69|Castres|Castres|Castres|43.605|2.2433||1|0|Romance Standard Time
654|DCS|71|Doncaster|Doncaster|Doncaster|53.5333|-1.1167||1|0|
655|DCU|212|Decatur|Decatur|Decatur|34.5733|-86.9919|AL|1|0|Central Standard Time
656|DDC|212|Dodge City|Dodge City|Dodge City|37.7609|-100.0182|KS|1|0|Central Standard Time
657|DDI|12|Daydream Island|Daydream Island|Daydream Island|-20.2557672|148.8139285||1|0|
658|DEC|212|Decatur|Decatur|Decatur|39.8555|-88.9337|IL|1|0|Central Standard Time
659|DEH|212|Decorah|Decorah|Decorah|43.3018|-91.7849|IA|1|0|Central Standard Time
660|DEL|95|Delhi|Delhi|Delhi|28.67|77.23||1|0|India Standard Time
661|DEN|212|Denver|Denver|Denver|39.7621|-104.8759|CO|1|0|Mountain Standard Time
662|DFI|212|Defiance|Defiance|Defiance|41.2806|-84.3663|OH|1|0|Eastern Standard Time
663|DFW|212|Dallas|Dallas|Dallas|32.7938|-96.7659|TX|1|0|Central Standard Time
664|DGE|12|Mudgee|Mudgee|Mudgee|-32.5896|149.5801||1|0|AUS Eastern Standard Time
665|DGM|43|Dongguan|Dongguan|Dongguan|23.0489|113.7447||1|0|Sri Lanka Standard Time
666|DGO|143|Durango|Durango|Durango|24.0311|-104.67|MX_DUR|1|0|Central Standard Time (Mexico)
667|DGP|123|Daugavpils|Daugavpils|Daugavpils|55.88|26.51||1|0|FLE Standard Time
668|DHA|176|Dhahran|Dhahran|Dhahran|26.2361248|50.0393017||1|0|Arab Standard Time
669|DHN|212|Dothan|Dothan|Dothan|31.2335|-85.4066|AL|1|0|Central Standard Time
670|DIG|43|Diqing|Diqing|Diqing|27.818757|99.702254||1|0|China Standard Time
671|DIJ|69|Dijon|Dijon|Dijon|47.3304|5.03||1|0|Romance Standard Time
672|DIK|212|Dickinson|Dickinson|Dickinson|46.8907|-102.7891|ND|1|0|Mountain Standard Time
673|DIL|203|Dili|Dili|Dili|-8.5568557|125.5603143||1|0|Tokyo Standard Time
674|DIR|63|Dire Dawa|Dire Dawa|Dire Dawa|9.59|41.86||1|0|E. Africa Standard Time
675|DIU|95|Diu In|Diu In|Diu In|20.7197|70.9904||1|0|India Standard Time
676|DIY|204|Diyarbai|Diyarbai|Diyarbai|37.9204|40.23||1|0|Turkey Standard Time
677|DJB|92|Jambi|Jambi|Jambi|-1.59|103.61||1|0|SE Asia Standard Time
678|DJE|201|Djerba|Djerba|Djerba|33.8075978|10.8451467||1|0|W. Central Africa Standard Time
679|DKI|12|Dunk Island|Dunk Island|Dunk Island|-17.9445593|146.1532893||1|0|E. Australia Standard Time
680|DKR|188|Dakar|Dakar|Dakar|14.7158|-17.4731||1|0|Greenwich Standard Time
681|DLA|42|Douala|Douala|Douala|4.0604|9.71||1|0|W. Central Africa Standard Time
682|DLC|43|Dalian|Dalian|Dalian|38.9228|121.6298||1|0|China Standard Time
683|DLD|153|Geilo|Geilo|Geilo|60.5167|8.2||1|0|
684|DLE|69|Dole|Dole|Dole|47.0928|5.493||1|0|Romance Standard Time
685|DLG|212|Dillingham|Dillingham|Dillingham|59.0549|-158.5376|AK|1|0|Alaskan Standard Time
686|DLH|212|Duluth|Duluth|Duluth|46.7797|-92.1334|MN|1|0|Central Standard Time
687|DLI|219|Dalat|Dalat|Dalat|11.9304|108.42||1|0|SE Asia Standard Time
688|DLL|212|Dillon|Dillon|Dillon|34.4223|-79.3721|SC|1|0|Eastern Standard Time
689|DLM|204|Dalaman|Dalaman|Dalaman|36.7659|28.8028||1|0|Turkey Standard Time
690|DLS|212|The Dalles|The Dalles|The Dalles|45.6049|-121.1819|OR|1|0|Pacific Standard Time
691|DMM|176|Dammam|Dammam|Dammam|26.3926665|49.9777136||1|0|Arab Standard Time
692|DMO|212|Sedalia|Sedalia|Sedalia|38.7043|-93.2349|MO|1|0|Central Standard Time
693|DND|71|Dundee|Dundee|Dundee|56.4704|-3.0||1|0|GMT Standard Time
694|DNK|209|Dnepropetrovsk|Dnepropetrovsk|Dnepropetrovsk|48.5113|34.6021||1|0|FLE Standard Time
695|DNQ|12|Deniliquin|Deniliquin|Deniliquin|-35.5296|144.95||1|0|AUS Eastern Standard Time
696|DNR|69|Dinard|Dinard|Dinard|48.6314|-2.0614||1|0|Romance Standard Time
697|DNV|212|Danville|Danville|Danville|40.1422|-87.6113|IL|1|0|Central Standard Time
698|DNZ|204|Denizli|Denizli|Denizli|37.7704|29.08||1|0|Turkey Standard Time
699|DOC|71|Dornoch|Dornoch|Dornoch|57.8667|-4.0333||1|0|GMT Standard Time
700|DOH|171|Doha|Doha|Doha|25.2866|51.533||1|0|Arab Standard Time
701|DOK|209|Donetsk|Donetsk|Donetsk|48.0|37.83||1|0|FLE Standard Time
702|DOL|69|Deauville|Deauville|Deauville|49.3568|0.0677||1|0|Romance Standard Time
703|DOM|54|Dominica|Dominica|Dominica|15.414999|-61.370976||1|0|SA Western Standard Time
704|DOV|212|Dover|Dover|Dover|39.16|-75.5204|DE|1|0|US Eastern Standard Time
705|DOX|12|Dongara|Dongara|Dongara|-29.2582|114.9328||1|0|W. Australia Standard Time
706|DPE|69|Dieppe|Dieppe|Dieppe|49.9337|1.0833||1|0|Romance Standard Time
707|DPO|12|Devonport|Devonport|Devonport|-41.1927|146.3311||1|0|Tasmania Standard Time
708|DPS|92|Denpasar|Denpasar Bali|Denpasar Bali|-8.65|115.22||1|0|Singapore Standard Time
709|DRB|12|Derby|Derby|Derby|-17.2973|123.6341||1|0|W. Australia Standard Time
710|DRO|212|Durango|Durango|Durango|37.2744|-107.8702|CO|1|0|Mountain Standard Time
711|DRS|51|Dresde|Dresden|Dresden|51.05|13.75||1|0|W. Europe Standard Time
712|DRT|212|Del Rio|Del Rio|Del Rio|29.3706|-100.8798|TX|1|0|Central Standard Time
713|DRW|12|Darwin|Darwin|Darwin|-12.4254|130.85||1|0|AUS Central Standard Time
714|DSD|80|La Desirade|La Desirade|La Desirade|16.3190276|-61.0518437||1|0|SA Western Standard Time
715|DSI|212|Destin|Destin|Destin|30.395|-86.4701|FL|1|0|Central Standard Time
716|DSM|212|Des Moines|Des Moines|Des Moines|41.5725|-93.6104|IA|1|0|Central Standard Time
717|DTM|51|Dortmund|Dortmund|Dortmund|51.53|7.45||1|0|W. Europe Standard Time
718|DTW|212|Detroit|Detroit|Detroit|42.3834|-83.1024|MI|1|0|Eastern Standard Time
719|DUB|93|Dublin|Dublin|Dublin|53.3331|-6.2489||1|0|GMT Standard Time
720|DUD|157|Dunedin|Dunedin|Dunedin|-45.8854|170.491||1|0|New Zealand Standard Time
721|DUG|212|Douglas|Douglas|Douglas|58.2756|-134.3925|AZ|1|0|US Mountain Standard Time
722|DUJ|212|Dubois|Dubois|Dubois|38.4458|-86.7978|PA|1|0|Eastern Standard Time
723|DUQ|33|Duncan|Duncan|Duncan|48.7833|-123.7||1|0|Pacific Standard Time
724|DUR|226|Durban|Durban|Durban|-29.865|30.98||1|0|South Africa Standard Time
725|DUS|51|Dusseldorf|Dusseldorf|Dusseldorf|51.2204|6.78||1|0|W. Europe Standard Time
726|DUT|212|Dutch Harbor|Dutch Harbor|Dutch Harbor|53.8898|-166.5421999|AK|1|0|Alaskan Standard Time
727|DVL|212|Devils Lake|Devils Lake|Devils Lake|48.1122|-98.876|ND|1|0|Central Standard Time
728|DVN|212|Davenport|Davenport|Davenport|41.5558|-90.6052|IA|1|0|Central Standard Time
729|DVO|163|Davao|Davao|Davao|7.11|125.63||1|0|Singapore Standard Time
730|DXB|2|Dubai|Dubai|Dubai|25.23|55.28||1|0|Arabian Standard Time
731|DXR|212|Danbury|Danbury|Danbury|41.4016|-73.471|CT|1|0|Eastern Standard Time
732|DYG|43|Dayong|Dayong|Dayong|25.0209|118.2898||1|0|China Standard Time
733|DYL|212|Doylestown|Doylestown|Doylestown|40.314|-75.128|PA|1|0|Eastern Standard Time
734|DYU|199|Dushanbe|Dushanbe|Dushanbe|38.56|68.7739||1|0|West Asia Standard Time
735|DZA|224|Dzaoudzi|Dzaoudzi|Dzaoudzi|-12.7871|45.275||1|0|E. Africa Standard Time
736|EAA|212|Eagle|Eagle|Eagle|64.7801|-141.1933|AK|1|0|Alaskan Standard Time
737|EAM|176|Nejran|Nejran|Nejran|17.6168059|44.4195157||1|0|Arab Standard Time
738|EAP|69|Mulhouse Basel|Mulhouse Basel|Mulhouse Basel|47.5981804|7.5254958||1|0|W. Europe Standard Time
739|EAR|212|Kearney|Kearney|Kearney|40.7008|-99.0839|NE|1|0|Central Standard Time
740|EAS|62|San Sebastion|San Sebastion|San Sebastion|43.3204|-1.98|ES-GI|1|0|Romance Standard Time
741|EAT|212|Wenatchee|Wenatchee|Wenatchee|47.4251|-120.329|WA|1|0|Pacific Standard Time
742|EAU|212|Eau Claire|Eau Claire|Eau Claire|44.8202|-91.4948|WI|1|0|Central Standard Time
743|EBA|99|Elba Island|Elba Island|Elba Island|42.7781867|10.1927389||1|0|W. Europe Standard Time
744|EBB|210|Entebbe Kampala|Entebbe|Entebbe|0.0604|32.46||1|0|E. Africa Standard Time
745|EBJ|53|Esbjerg|Esbjerg|Esbjerg|55.467|8.45||1|0|Romance Standard Time
746|EBU|69|St Etienne|St Etienne|St Etienne|45.439695|4.3871779||1|0|Romance Standard Time
747|ECG|212|Elizabeth City|Elizabeth City|Elizabeth City|36.2946|-76.2357|NC|1|0|Eastern Standard Time
748|ECH|12|Echuca|Echuca|Echuca|-36.1296|144.75||1|0|AUS Eastern Standard Time
749|ECN|49|Ercan|Ercan|Ercan|35.158773|33.50399||1|0|GTB Standard Time
750|EDI|71|Edimburgo|Edinburgh|Edinburgh|55.9483|-3.2191||1|0|GMT Standard Time
751|EDL|103|Eldoret|Eldoret|Eldoret|0.52|35.27||1|0|E. Africa Standard Time
752|EDM|69|La Roche|La Roche|La Roche|47.3006|-1.7244||1|0|Romance Standard Time
753|EED|212|Needles|Needles|Needles|34.816|-114.6192|CA|1|0|Pacific Standard Time
754|EEN|212|Keene|Keene|Keene|42.9496|-72.2997|NH|1|0|Eastern Standard Time
755|EFL|82|Kefalonia|Kefalonia|Kefalonia|38.1753675|20.5692179||1|0|GTB Standard Time
756|EGC|69|Bergerac|Bergerac|Bergerac|44.8525|0.4849||1|0|Romance Standard Time
757|EGE|212|Eagle|Eagle|Eagle|39.6368|-106.8157|CO|1|0|Mountain Standard Time
758|EGO|174|Belgorod|Belgorod|Belgorod|50.63|36.5999||1|0|Russian Standard Time
759|EGS|98|Egilsstadir|Egilsstadir|Egilsstadir|65.2674|-14.395||1|0|Greenwich Standard Time
760|EGV|212|Eagle River|Eagle River|Eagle River|61.3214|-149.5678|WI|1|0|Central Standard Time
761|EHT|212|East Hartford|East Hartford|East Hartford|41.7634|-72.6152|CT|1|0|
762|EIB|51|Eisenach|Eisenach|Eisenach|50.9807|10.3152||1|0|W. Europe Standard Time
763|EIN|152|Eindhoven|Eindhoven|Eindhoven|51.43|5.5||1|0|W. Europe Standard Time
764|EIS|218|Beef Island|Beef Island|Beef Island|18.4442001|-64.54593440000001||1|0|SA Western Standard Time
765|EJA|44|Barrancabermeja|Barrancabermeja|Barrancabermeja|7.09|-73.85|CO26|1|0|SA Pacific Standard Time
766|EKI|212|Elkhart|Elkhart|Elkhart|41.6919|-85.962|IN|1|0|US Eastern Standard Time
767|EKN|212|Elkins|Elkins|Elkins|38.9237|-79.854|WV|1|0|Eastern Standard Time
768|EKO|212|Elko|Elko|Elko|40.8383|-115.7677|NV|1|0|Pacific Standard Time
769|EKT|180|Eskilstuna|Eskilstuna|Eskilstuna|59.3667|16.5||1|0|W. Europe Standard Time
770|EKX|212|Elizabethtown|Elizabethtown|Elizabethtown|37.7033|-85.8771|KY|1|0|Eastern Standard Time
771|ELD|212|El Dorado|El Dorado|El Dorado|33.2182|-92.6641|AR|1|0|Central Standard Time
772|ELF|82|Kefalonia|Kefalonia|Kefalonia|38.1753675|20.5692179||0|0|Sudan Standard Time
773|ELH|27|North Eleuthera|North Eleuthera|North Eleuthera|25.4647517|-76.675922||1|0|Eastern Standard Time
774|ELK|212|Elk City|Elk City|Elk City|35.3849|-99.4333|OK|1|0|Central Standard Time
775|ELM|212|Elmira|Elmira|Elmira|42.0938|-76.8097|NY|1|0|Eastern Standard Time
776|ELP|212|El Paso|El Paso|El Paso|31.8478|-106.431|TX|1|0|Mountain Standard Time
777|ELQ|176|Gassim|Gassim|Gassim|25.8274886|42.8637875||1|0|Arab Standard Time
778|ELS|226|East London|East London|East London|-32.97|27.87||1|0|South Africa Standard Time
779|ELY|212|Ely Nv|Ely Nv|Ely Nv|39.2649|-114.8709|NV|1|0|Pacific Standard Time
780|EM1|143|El Oro|El Oro|El Oro|26.8632|-105.8484|MX_MEX|1|0|
781|EMD|12|Emerald|Emerald|Emerald|-23.5122|148.1673||1|0|E. Australia Standard Time
782|EMT|212|El Monte|El Monte|El Monte|34.0739|-118.0291|CA|1|0|Pacific Standard Time
783|ENA|212|Kenai|Kenai|Kenai|60.5614|-151.1976|AK|1|0|Alaskan Standard Time
784|ENC|69|Nancy|Nancy|Nancy|48.6837|6.2||1|0|Romance Standard Time
785|ENK|93|Enniskillen|Enniskillen|Enniskillen|54.3438243|-7.6315336||1|0|GMT Standard Time
786|ENL|212|Centralia|Centralia|Centralia|38.5222|-89.1233|IL|1|0|Central Standard Time
787|ENS|152|Enschede|Enschede|Enschede|52.2195|6.8912||1|0|W. Europe Standard Time
788|ENW|212|Kenosha|Kenosha|Kenosha|42.5861|-87.8755|WI|1|0|Central Standard Time
789|EOI|71|Eday|Eday|Eday|50.238767|-5.187696||1|0|GMT Standard Time
790|EOK|212|Keokuk|Keokuk|Keokuk|40.4096|-91.4031|IA|1|0|Central Standard Time
791|EPL|69|Epinal|Epinal|Epinal|48.1832|6.453||1|0|Romance Standard Time
792|EPR|12|Esperance|Esperance|Esperance|-33.8573|121.8889||1|0|W. Australia Standard Time
793|EQS|232|Esquel|Esquel|Esquel|-42.9|-71.3166|ARU|1|0|Argentina Standard Time
794|ERF|51|Erfurt|Erfurt|Erfurt|50.9701|11.03||1|0|W. Europe Standard Time
795|ERI|212|Erie|Erie|Erie|42.1167|-80.0731|PA|1|0|Eastern Standard Time
796|ERZ|204|Erzurum|Erzurum|Erzurum|39.9204|41.29||1|0|Turkey Standard Time
797|ESC|212|Escanaba|Escanaba|Escanaba|45.7478|-87.0905|MI|1|0|Eastern Standard Time
798|ESD|212|East Sound|East Sound|East Sound|48.6968|-122.9055|WA|1|0|Pacific Standard Time
799|ESE|143|Ensenada|Ensenada|Ensenada|31.87|-116.62|MX_BCN|1|0|Pacific Standard Time (Mexico)
800|ESL|174|Elista|Elista|Elista|46.3287|44.2087||1|0|Russian Standard Time
801|ESM|57|Esmeraldas|Esmeraldas|Esmeraldas|-1.8667|-79.8||1|0|SA Pacific Standard Time
802|ESN|212|Easton|Easton|Easton|40.6858|-75.2209|MD|1|0|Eastern Standard Time
803|ESP|212|East Stroudsburg|East Stroudsburg|East Stroudsburg|41.0023|-75.1779|PA|1|0|Eastern Standard Time
804|ESR|41|El Salvador|El Salvador|El Salvador|-26.244|-69.6255||1|0|Pacific SA Standard Time
805|ESS|51|Essen|Essen|Essen|51.45|7.0166||1|0|W. Europe Standard Time
806|ESU|125|Essaouira|Essaouira|Essaouira|31.5105|-9.7611||1|0|Morocco Standard Time
807|ETB|212|West Bend|West Bend|West Bend|43.4184|-88.1823|WI|1|0|Central Standard Time
808|ETH|94|Elat|Elat|Elat|29.558|34.9482||1|0|Israel Standard Time
809|ETS|212|Enterprise|Enterprise|Enterprise|31.3276|-85.8459|AL|1|0|Central Standard Time
810|ETZ|69|Metz Nancy|Metz Nancy|Metz Nancy|48.7055429|6.1685397||1|0|Romance Standard Time
811|EUF|212|Eufaula|Eufaula|Eufaula|31.9102|-85.1505|AL|1|0|Central Standard Time
812|EUG|212|Eugene|Eugene|Eugene|44.0562|-123.1172|OR|1|0|Pacific Standard Time
813|EUN|125|El Aaiun|El Aaiun|El Aaiun|27.1252867|-13.1625005||1|0|Morocco Standard Time
814|EUX|8|St Eustatius|St Eustatius|St Eustatius|17.4890306|-62.973555||1|0|SA Western Standard Time
815|EVE|153|Harstad Narvik|Harstad Narvik|Harstad Narvik|68.4885955|16.6814426||1|0|W. Europe Standard Time
816|EVG|180|Sveg|Sveg|Sveg|62.0333|14.35||1|0|W. Europe Standard Time
817|EVM|212|Eveleth|Eveleth|Eveleth|47.4637|-92.544|MN|1|0|Central Standard Time
818|EVN|7|Erevan|Erevan|Erevan|40.1812|44.5136||1|0|Caucasus Standard Time
819|EVV|212|Evansville|Evansville|Evansville|37.9882|-87.5339|IN|1|0|Central Standard Time
820|EVX|69|Evreux|Evreux|Evreux|49.0233|1.1555||1|0|Romance Standard Time
821|EWB|212|New Bedford|New Bedford|New Bedford|41.6697|-70.9428|MA|1|0|Eastern Standard Time
822|EWK|212|Newton|Newton|Newton|38.0348|-97.3519|KS|1|0|Central Standard Time
823|EWN|212|New Bern|New Bern|New Bern|35.0956|-77.0723|NC|1|0|Eastern Standard Time
824|EXI|212|Excursion Inlet|Excursion Inlet|Excursion Inlet|58.4344|-135.3727|AK|1|0|Alaskan Standard Time
825|EXM|12|Exmouth Gulf|Exmouth Gulf|Exmouth Gulf|-21.9311|114.1233||1|0|W. Australia Standard Time
826|EXT|71|Exeter|Exeter|Exeter|50.7004|-3.53||1|0|GMT Standard Time
827|EYP|44|Yopal|Yopal|Yopal|5.347|-72.406|CO32|1|0|SA Pacific Standard Time
828|EYW|212|Key West|Key West|Key West|24.5636|-81.7768|FL|1|0|Eastern Standard Time
829|EZS|204|Elazig|Elazig|Elazig|38.68|39.23||1|0|Turkey Standard Time
830|FAE|53|Faeroe Islands|Faeroe Islands|Faeroe Islands|62.0089826|-6.7697024||1|0|GMT Standard Time
831|FAI|212|Fairbanks|Fairbanks|Fairbanks|64.8353|-147.6533|AK|1|0|Alaskan Standard Time
832|FAJ|212|Fajardo|Fajardo|Fajardo|18.343882|-65.67179|PR|1|0|SA Western Standard Time
833|FAO|168|Faro|Faro|Faro|37.0171|-7.9333||1|0|GMT Standard Time
834|FAR|212|Fargo|Fargo|Fargo|46.8654|-96.829|ND|1|0|Central Standard Time
835|FAT|212|Fresno|Fresno|Fresno|36.7834|-119.7933|CA|1|0|Pacific Standard Time
836|FAY|212|Fayetteville|Fayetteville|Fayetteville|35.0847|-78.9777|NC|1|0|Eastern Standard Time
837|FBM|35|Lubumbashi|Lubumbashi|Lubumbashi|-11.68|27.48||1|0|South Africa Standard Time
838|FCA|212|Kalispell|Kalispell|Kalispell|48.2155|-114.3262|MT|1|0|Mountain Standard Time
839|FCB|226|Ficksburg|Ficksburg|Ficksburg|-28.8737|27.8813||1|0|South Africa Standard Time
840|FCY|212|Forrest City|Forrest City|Forrest City|35.0101|-90.7875|AR|1|0|Central Standard Time
841|FDE|153|Forde|Forde|Forde|61.45|5.8667||1|0|W. Europe Standard Time
842|FDF|136|Fort De France|Ft De France|Ft De France|14.6104|-61.08||1|0|SA Western Standard Time
843|FDH|51|Friedrichshafen|Friedrichshafen|Friedrichshafen|47.6558|9.4781||1|0|W. Europe Standard Time
844|FDK|212|Frederick|Frederick|Frederick|39.4334|-77.4154|MD|1|0|Eastern Standard Time
845|FEN|26|Fernando De Noronha|Fernando De Noronha|Fernando de Noronha|-3.8447976|-32.4268917|BR_PE|1|0|UTC-02
846|FEZ|125|Fez Ma|Fez Ma|Fez Ma|34.0546|-5.0004||1|0|Morocco Standard Time
847|FFM|212|Fergus Falls|Fergus Falls|Fergus Falls|46.285|-96.0763|MN|1|0|Central Standard Time
848|FHU|212|Ft Huachuca|Ft Huachuca|Ft Huachuca|31.6308|-110.3422|AZ|1|0|US Mountain Standard Time
849|FIE|71|Fair Isle|Fair Isle|Fair Isle|51.6322733|-0.5597247||1|0|GMT Standard Time
850|FIH|35|Kinshasa|Kinshasa|Kinshasa|-4.3297|15.315||1|0|W. Central Africa Standard Time
851|FJR|2|Al Fujairah|Al Fujairah|Al Fujairah|25.1234|56.3375||1|0|Arabian Standard Time
852|FKB|51|Karlsruhe Baden Baden|Karlsruhe Baden Baden|Karlsruhe Baden Baden|48.7783557|8.0909751||1|0|W. Europe Standard Time
853|FKL|212|Franklin|Franklin|Franklin|42.0834|-71.3967|PA|1|0|Eastern Standard Time
854|FKS|102|Fukushima|Fukushima|Fukushima|37.74|140.47||1|0|Tokyo Standard Time
855|FLA|44|Florencia|Florencia|Florencia|1.6104|-75.62|CO08|1|0|SA Pacific Standard Time
856|FLB|26|Floriano|Floriano|Floriano|-6.7696|-43.03|BR_PI|1|0|SA Eastern Standard Time
857|FLF|51|Flensburg|Flensburg|Flensburg|54.7837|9.4333||1|0|W. Europe Standard Time
858|FLG|212|Flagstaff|Flagstaff|Flagstaff|35.1867|-111.6175|AZ|1|0|US Mountain Standard Time
859|FLL|212|Fort Lauderdale Florida|Fort Lauderdale Florida|Fort Lauderdale Florida|26.1412|-80.1464|FL|1|0|Eastern Standard Time
860|FLN|26|Florianopolis|Florianopolis|Florianopolis|-27.58|-48.52|BR_SC|1|0|E. South America Standard Time
861|FLO|212|Florence|Florence|Florence|34.1782|-79.785|SC|1|0|Eastern Standard Time
862|FLR|99|Florencia|Florence|Florencia|43.78|11.25||1|0|W. Europe Standard Time
863|FLW|168|Santa Cruz Flores|Santa Cruz Flores|Santa Cruz Flores|39.45|-31.1167||1|0|Azores Standard Time
864|FMA|232|Formosa|Formosa|Formosa|-26.1728|-58.1828|ARP|1|0|Argentina Standard Time
865|FMH|212|Falmouth|Falmouth|Falmouth|41.5516|-70.6089|MA|1|0|Eastern Standard Time
866|FMN|212|Farmington|Farmington|Farmington|36.7559|-108.1827|NM|1|0|Mountain Standard Time
867|FMO|51|Muenster|Muenster|Muenster|51.9704|7.62||1|0|W. Europe Standard Time
868|FMS|212|Fort Madison|Fort Madison|Fort Madison|40.6198|-91.352|IA|1|0|Central Standard Time
869|FMY|212|Fort Myers|Fort Myers|Fort Myers|26.6197|-81.8306|FL|1|0|Eastern Standard Time
870|FNA|186|Freetown|Freetown|Freetown|8.47|-13.2342||1|0|Greenwich Standard Time
871|FNC|168|Funchal Isla Madeira|Funchal|Funchal|32.65|-16.88||1|0|GMT Standard Time
872|FNI|69|Nimes|Nimes|Nimes|43.8304|4.35||1|0|Romance Standard Time
873|FNL|212|Ft Collins|Ft Collins|Ft Collins|40.5487|-105.0656|CO|1|0|Mountain Standard Time
874|FNT|212|Flint|Flint|Flint|43.0235|-83.6921|MI|1|0|Eastern Standard Time
875|FOC|43|Fuzhou|Fuzhou|Fuzhou|26.08|119.3||1|0|China Standard Time
876|FOD|212|Fort Dodge|Fort Dodge|Fort Dodge|42.5098|-94.1751|IA|1|0|Central Standard Time
877|FOG|99|Foggia|Foggia|Foggia|41.4605|15.56||1|0|W. Europe Standard Time
878|FOR|26|Fortaleza|Fortaleza|Fortaleza|-3.75|-38.58|BR_CE|1|0|SA Eastern Standard Time
879|FOT|12|Forster|Forster|Forster|-32.1814|152.5172||1|0|AUS Eastern Standard Time
880|FPO|27|Freeport|Freeport|Freeport|26.5333|-78.7||1|0|Eastern Standard Time
881|FPR|212|Fort Pierce|Fort Pierce|Fort Pierce|27.4263|-80.3421|FL|1|0|Eastern Standard Time
882|FRA|51|Frankfurt|Frankfurt|Frankfurt|50.1|8.675||1|0|W. Europe Standard Time
883|FRD|212|Friday Harbor|Friday Harbor|Friday Harbor|48.5324|-123.0656|WA|1|0|Pacific Standard Time
884|FRG|212|Farmingdale|Farmingdale|Farmingdale|40.7328|-73.4465|NY|1|0|Eastern Standard Time
885|FRJ|69|Frejus|Frejus|Frejus|43.4329|6.7352||1|0|
886|FRL|99|Forli|Forli|Forli|44.2236|12.0528||1|0|W. Europe Standard Time
887|FRM|212|Fairmont|Fairmont|Fairmont|47.902|-122.2543|MN|1|0|Central Standard Time
888|FRO|153|Floro|Floro|Floro|61.6|5.0||1|0|W. Europe Standard Time
889|FRR|212|Front Royal|Front Royal|Front Royal|38.926|-78.1837|VA|1|0|Eastern Standard Time
890|FRS|83|Flores|Flores|Flores|16.9337|-89.8833||1|0|Central America Standard Time
891|FRU|104|Bishkek|Bishkek|Bishkek|42.8731|74.5852||1|0|Central Asia Standard Time
892|FRW|30|Francistown|Francistown|Francistown|-21.17|27.5||1|0|South Africa Standard Time
893|FRZ|51|Fritzlar|Fritzlar|Fritzlar|51.1318|9.2756||1|0|W. Europe Standard Time
894|FSC|69|Figari|Figari|Figari|41.48734|9.130112||1|0|Romance Standard Time
895|FSD|212|Sioux Falls|Sioux Falls|Sioux Falls|43.5382|-96.7315|SD|1|0|Central Standard Time
896|FSM|212|Ft Smith|Ft Smith|Ft Smith|60.0|-111.8833|AR|1|0|Central Standard Time
897|FSP|33|St Pierre|St Pierre|St Pierre|49.44033|-96.9850637||1|0|Saint Pierre Standard Time
898|FST|212|Fort Stockton|Fort Stockton|Fort Stockton|30.8926|-102.8847|TX|1|0|Central Standard Time
899|FTE|232|Calafate|Calafate|Calafate|-50.3282227|-72.437916|ARZ|1|0|Argentina Standard Time
900|FTW|212|Ft Worth|Ft Worth|Ft Worth|32.7813|-97.3466|TX|1|0|Central Standard Time
901|FUE|62|Fuerte Ventura, Islas Canarias|Fuerteventura|Fuerteventura|28.3587436|-14.053676|ES-LP|1|0|GMT Standard Time
902|FUJ|102|Fukue|Fukue|Fukue|34.6168|137.107||1|0|Tokyo Standard Time
903|FUK|102|Fukuoka|Fukuoka|Fukuoka|33.595|130.41||1|0|Tokyo Standard Time
904|FUL|212|Fullerton|Fullerton|Fullerton|33.8841|-117.9279|CA|1|0|Pacific Standard Time
905|FUN|206|Funafuti|Funafuti|Funafuti|-8.5167|179.2166||1|0|UTC+12
906|FWA|212|Ft Wayne|Ft Wayne|Ft Wayne|41.0885|-85.1436|IN|1|0|US Eastern Standard Time
907|FWM|71|Fort William|Fort William|Fort William|56.8165|-5.1121||1|0|
908|FYV|212|Fayetteville|Fayetteville|Fayetteville|36.0713|-94.166|AR|1|0|Central Standard Time
909|GAD|212|Gadsden|Gadsden|Gadsden|34.009|-86.0156|AL|1|0|Central Standard Time
910|GAI|212|Gaithersburg|Gaithersburg|Gaithersburg|39.1347|-77.213|MD|1|0|Eastern Standard Time
911|GAJ|102|Yamagata|Yamagata|Yamagata|38.2705|140.32||1|0|Tokyo Standard Time
912|GAL|212|Galena|Galena|Galena|64.7387|-156.8584|AK|1|0|Alaskan Standard Time
913|GAT|69|Gap France|Gap France|Gap France|44.5615|6.0811||1|0|Romance Standard Time
914|GBD|212|Great Bend|Great Bend|Great Bend|38.3592|-98.8007|KS|1|0|Central Standard Time
915|GBE|30|Gaborone|Gaborone|Gaborone|-24.6463|25.9119||1|0|South Africa Standard Time
916|GBG|212|Galesburg|Galesburg|Galesburg|40.9506|-90.3763|IL|1|0|Central Standard Time
917|GBK|186|Gbangbatok|Gbangbatok|Gbangbatok|7.8067|-12.3822||1|0|Greenwich Standard Time
918|GBN|99|San Giovanni Rotondo|San Giovanni Rotondo|San Giovanni Rotondo|41.7|15.7333||1|0|
919|GBZ|157|Great Barrier Island|Great Barrier Island|Great Barrier Island|-36.1972824|175.4169211||1|0|New Zealand Standard Time
920|GCC|212|Gillette|Gillette|Gillette|44.2793|-105.5013|WY|1|0|Mountain Standard Time
921|GCI|71|Guernsey|Guernsey|Guernsey|51.6471795|-0.411042||1|0|GMT Standard Time
922|GCK|212|Garden City|Garden City|Garden City|37.9765|-100.8579|KS|1|0|Central Standard Time
923|GCM|112|Grand Cayman Island|Grand Cayman Island|Grand Cayman Island|19.3221698|-81.2408689||1|0|SA Pacific Standard Time
924|GCN|212|Grand Canyon|Grand Canyon|Grand Canyon|36.0544|-112.1393|AZ|1|0|US Mountain Standard Time
925|GCV|26|Gravatai|Gravatai|Gravataí|-29.9426|-50.9933|BR_RS|1|0|
926|GCY|212|Greenville|Greenville|Greenville|36.168|-82.8197|TN|1|0|Eastern Standard Time
927|GDL|143|Guadalajara|Guadalajara|Guadalajara|20.67|-103.33|MX_JAL|1|0|Central Standard Time (Mexico)
928|GDN|165|Gdansk|Gdansk|Gdansk|54.36|18.64||1|0|Central European Standard Time
929|GDT|195|Grand Turk|Grand Turk|Grand Turk|21.4664|-71.136||1|0|Turks And Caicos Standard Time
930|GDX|174|Magadan|Magadan|Magadan|59.575|150.81||1|0|Magadan Standard Time
931|GED|212|Georgetown|Georgetown|Georgetown|38.6899|-75.3872|DE|1|0|Eastern Standard Time
932|GEG|212|Spokane|Spokane|Spokane|47.6671|-117.433|WA|1|0|Pacific Standard Time
933|GEO|86|Georgetown|Georgetown|Georgetown|6.802|-58.167||1|0|SA Western Standard Time
934|GER|46|Nueva Gerona|Nueva Gerona|Nueva Gerona|21.8837|-82.8||1|0|Cuba Standard Time
935|GET|12|Geraldton|Geraldton|Geraldton|-28.7666|114.6||1|0|W. Australia Standard Time
936|GEV|180|Gallivare|Gallivare|Gallivare|67.1333|20.7||1|0|W. Europe Standard Time
937|GEX|12|Geelong|Geelong|Geelong|-38.1675|144.3956||1|0|AUS Eastern Standard Time
938|GFD|212|Greenfield|Greenfield|Greenfield|36.3232|-121.245|IN|1|0|US Eastern Standard Time
939|GFF|12|Griffith|Griffith|Griffith|-34.29|146.04||1|0|AUS Eastern Standard Time
940|GFK|212|Grand Forks|Grand Forks|Grand Forks|47.912|-97.0751|ND|1|0|Central Standard Time
941|GFL|212|Glens Falls|Glens Falls|Glens Falls|43.3109|-73.6459|NY|1|0|Eastern Standard Time
942|GFN|12|Grafton|Grafton|Grafton|-29.712|152.9377||1|0|AUS Eastern Standard Time
943|GG2|143|Grutas de Cacahuamilpa|Grutas de Cacahuamilpa|Grutas de Cacahuamilpa|18.7678052|-99.3655076|MX_GRO|1|0|
944|GGG|212|Longview|Longview|Longview|32.5192|-94.7622|TX|1|0|Central Standard Time
945|GGT|27|George Town|George Town|George Town|23.5063|-75.7696||1|0|Eastern Standard Time
946|GGW|212|Glasgow|Glasgow|Glasgow|48.1989|-106.6321|MT|1|0|Mountain Standard Time
947|GHA|56|Ghardaia|Ghardaia|Ghardaia|32.49|3.67||1|0|W. Central Africa Standard Time
948|GHB|27|Governor S Harbour|Governor S Harbour|Governor S Harbour|25.1962025|-76.2406701||1|0|Eastern Standard Time
949|GIB|76|Gibraltar|Gibraltar|Gibraltar|36.1324|-5.3781||1|0|W. Europe Standard Time
950|GIF|212|Winter Haven|Winter Haven|Winter Haven|28.0126|-81.7021|FL|1|0|Eastern Standard Time
951|GIL|164|Gilgit|Gilgit|Gilgit|35.9171|74.3||1|0|Pakistan Standard Time
952|GIS|157|Gisborne|Gisborne|Gisborne|-38.6633|178.0181||1|0|New Zealand Standard Time
953|GIZ|176|Gizan|Gizan|Gizan|16.8893586|42.5705674||1|0|Arab Standard Time
954|GJ1|26|Guarajuba|Guarajuba|Guarajuba|-12.7|-38.1||1|0|
955|GJT|212|Grand Junction|Grand Junction|Grand Junction|39.0881|-108.5675|CO|1|0|Mountain Standard Time
956|GKA|162|Goroka|Goroka|Goroka|-6.0833|145.3855||1|0|West Pacific Standard Time
957|GKT|212|Gatlinburg|Gatlinburg|Gatlinburg|35.725|-83.4936|TN|1|0|Eastern Standard Time
958|GLA|71|Glasgow|Glasgow|Glasgow|55.8744|-4.2507||1|0|GMT Standard Time
959|GLD|212|Goodland|Goodland|Goodland|39.349|-101.7143|KS|1|0|Mountain Standard Time
960|GLE|212|Gainesville|Gainesville|Gainesville|33.6391|-97.1488|TX|1|0|Central Standard Time
961|GLH|212|Greenville|Greenville|Greenville|33.385|-91.0514|MS|1|0|Central Standard Time
962|GLI|12|Glen Innes|Glen Innes|Glen Innes|-29.7349|151.7385||1|0|AUS Eastern Standard Time
963|GLL|153|Gol City|Gol City|Gol City|60.7|8.95||1|0|W. Europe Standard Time
964|GLO|71|Gloucester|Gloucester|Gloucester|51.8333|-2.25||1|0|GMT Standard Time
965|GLR|212|Gaylord|Gaylord|Gaylord|45.0211|-84.6799|MI|1|0|Eastern Standard Time
966|GLS|212|Galveston|Galveston|Galveston|29.2487|-94.891|TX|1|0|Central Standard Time
967|GLT|12|Gladstone|Gladstone|Gladstone|-23.8533|151.2467||1|0|E. Australia Standard Time
968|GME|31|Gomel|Gomel|Gomel|52.4636|30.8075||1|0|Belarus Standard Time
969|GMO|143|Guanajuato|Guanajuato|Guanajuato|21.0204|-101.28|MX_GUA|1|0|W. Central Africa Standard Time
970|GMV|212|Monument Valley|Monument Valley|Monument Valley|40.5738317|-111.8207855||1|0|Mountain Standard Time
971|GMZ|62|San Sebastian De La Gomera|San Sebastian De La Gomera|San Sebastian De La Gomera|28.0916|-17.1133|ES-TF|1|0|GMT Standard Time
972|GNA|31|Grodna|Grodna|Grodna|53.9353|28.6434||1|0|Belarus Standard Time
973|GNB|69|Grenoble|Grenoble|Grenoble|45.1804|5.72||1|0|Romance Standard Time
974|GND|72|Granada|Grenada|Grenada|12.1165|-61.679||1|0|SA Western Standard Time
975|GNS|92|Gunungsitoli|Gunungsitoli|Gunungsitoli|1.2888|97.6143||1|0|SE Asia Standard Time
976|GNV|212|Gainesville|Gainesville|Gainesville|29.6814|-82.3454|FL|1|0|Eastern Standard Time
977|GNY|204|Sanliurfa Guney|Sanliurfa Guney|Sanliurfa Guney|37.7479517|39.3004936||1|0|Turkey Standard Time
978|GOA|99|Genoa|Genoa|Genoa|44.41|8.93||1|0|W. Europe Standard Time
979|GOH|77|Nuuk|Nuuk|Nuuk|64.1983|-51.7327||1|0|Greenland Standard Time
980|GOI|95|Goa|Goa|Goa|15.5016|73.9131||1|0|India Standard Time
981|GOJ|174|Nizhniy Novgorod|Nizhniy Novgorod|Nizhniy Novgorod|56.333|44.0001||1|0|Russian Standard Time
982|GON|212|New London|New London|New London|41.3502|-72.1023|CT|1|0|Eastern Standard Time
983|GOO|12|Goondiwindi|Goondiwindi|Goondiwindi|-28.5548|150.3253||1|0|E. Australia Standard Time
984|GOT|180|Gotemburgo|Gothenburg|Gothenburg|57.70887|11.97456||1|0|W. Europe Standard Time
985|GOV|12|Gove|Gove|Gove|-12.3333333|136.8166667||1|0|AUS Central Standard Time
986|GPA|82|Patras|Patras|Patras|38.23|21.73||1|0|GTB Standard Time
987|GPS|57|Galapagos Is|Galapagos Is|Galapagos Is|0.35|-78.7333||1|0|Central America Standard Time
988|GPT|212|Gulfport|Gulfport|Gulfport|30.4271|-89.0703|MS|1|0|Central Standard Time
989|GPZ|212|Grand Rapids|Grand Rapids|Grand Rapids|47.2379|-93.5326|MN|1|0|Central Standard Time
990|GQQ|212|Galion|Galion|Galion|40.7392|-82.7773|OH|1|0|Eastern Standard Time
991|GRB|212|Green Bay|Green Bay|Green Bay|44.5151|-87.9895|WI|1|0|Central Standard Time
992|GRI|212|Grand Island|Grand Island|Grand Island|40.9214|-98.3585|NE|1|0|Central Standard Time
993|GRJ|226|George|George|George|-33.95|22.45||1|0|South Africa Standard Time
994|GRK|212|Killen, Texas|Killen, Texas|Killen, Texas|31.0758|-97.7286|TX|1|0|Central Standard Time
995|GRO|62|Gerona|Gerona|Gerona|41.9794005|2.8214264|ES-GI|1|0|Romance Standard Time
996|GRQ|152|Groningen|Groningen|Groningen|53.2204|6.58||1|0|W. Europe Standard Time
997|GRR|212|Grand Rapids|Grand Rapids|Grand Rapids|42.9615|-85.6557|MI|1|0|Eastern Standard Time
998|GRS|99|Grosseto|Grosseto|Grosseto|42.7667|11.1333||1|0|W. Europe Standard Time
999|GRW|168|Graciosa Island|Graciosa Island|Graciosa Island|39.0524827|-28.0068979||1|0|Azores Standard Time
1000|GRX|62|Granada|Granada|Granada|37.165|-3.585|ES-GR|1|0|Romance Standard Time
1001|GRZ|11|Graz|Graz|Graz|47.0778|15.41||1|0|W. Europe Standard Time
1002|GSB|212|Goldsboro|Goldsboro|Goldsboro|35.3777|-77.9721|NC|1|0|Eastern Standard Time
1003|GSO|212|Greensboro|Greensboro|Greensboro|36.096|-79.8275|NC|1|0|Eastern Standard Time
1004|GSP|212|Greenville|Greenville|Greenville|34.8364|-82.3649|SC|1|0|Eastern Standard Time
1005|GST|212|Glacier Bay|Glacier Bay|Glacier Bay|58.6658073|-136.9002147|AK|1|0|Alaskan Standard Time
1006|GSY|71|Grimsby|Grimsby|Grimsby|53.5333|-0.05||1|0|
1007|GTE|45|Guanacaste|Guanacaste|Guanacaste|10.6267399|-85.4436706||1|0|AUS Central Standard Time
1008|GTF|212|Great Falls|Great Falls|Great Falls|47.5016|-111.2993|MT|1|0|Mountain Standard Time
1009|GTI|51|Guettin|Guettin|Guettin|54.3851|13.3101||1|0|W. Europe Standard Time
1010|GTR|212|Columbus|Columbus|Columbus|33.5086|-88.4134|MS|1|0|Central Standard Time
1011|GTY|212|Gettysburg|Gettysburg|Gettysburg|39.8304|-77.2339|PA|1|0|Eastern Standard Time
1012|GUA|83|Guatemala|Guatemala City|Guatemala|14.6211|-90.527||1|0|Central America Standard Time
1013|GUC|212|Gunnison|Gunnison|Gunnison|38.5455|-106.9226|CO|1|0|Mountain Standard Time
1014|GUF|212|Gulf Shores|Gulf Shores|Gulf Shores|30.2718|-87.708|AL|1|0|Central Standard Time
1015|GUH|12|Gunnedah|Gunnedah|Gunnedah|-30.987|150.2623||1|0|AUS Eastern Standard Time
1016|GUM|84|Guam|Guam|Guam|13.444304|144.793731||1|0|West Pacific Standard Time
1017|GUP|212|Gallup|Gallup|Gallup|35.5178|-108.7473|NM|1|0|Mountain Standard Time
1018|GUR|162|Alotau|Alotau|Alotau|-10.3021|150.4591||1|0|West Pacific Standard Time
1019|GUT|51|Gutersloh|Gutersloh|Gutersloh|51.9069|8.3785||1|0|W. Europe Standard Time
1020|GVA|38|Ginebra|Ginebra|Ginebra|46.21|6.14||1|0|W. Europe Standard Time
1021|GVR|26|Governador Valadares|Governador Valadares|Governador Valadares|-18.87|-41.97|BR_MG|1|0|E. South America Standard Time
1022|GVX|180|Gavle|Gavle|Gavle|60.667|17.1666||1|0|W. Europe Standard Time
1023|GWE|228|Gweru|Gweru|Gweru|-19.45|29.82||1|0|South Africa Standard Time
1024|GWO|212|Greenwood|Greenwood|Greenwood|33.5126|-90.1993|MS|1|0|Central Standard Time
1025|GWS|212|Glenwood Springs|Glenwood Springs|Glenwood Springs|39.5459|-107.3348|CO|1|0|Mountain Standard Time
1026|GWT|51|Westerland|Westerland|Westerland|54.9077|8.3124||1|0|W. Europe Standard Time
1027|GWY|93|Galway|Galway|Galway|53.2724|-9.0488||1|0|GMT Standard Time
1028|GXQ|41|Coyhaique|Coyhaique|Coyhaique|-45.57|-72.07||1|0|Pacific SA Standard Time
1029|GYE|57|Guayaquil|Guayaquil|Guayaquil|-2.22|-79.92||1|0|SA Pacific Standard Time
1030|GYM|143|Guaymas|Guaymas|Guaymas|27.93|-110.89|MX_SON|1|0|US Mountain Standard Time
1031|GYN|26|Goiania|Goiania|Goiânia|-16.72|-49.3|BR_GO|1|0|E. South America Standard Time
1032|GYP|12|Gympie|Gympie|Gympie|-26.1886|152.6709||1|0|E. Australia Standard Time
1033|GYR|212|Goodyear|Goodyear|Goodyear|33.2613|-112.3622|AZ|1|0|US Mountain Standard Time
1034|GYS|43|Guang Yuan|Guang Yuan|Guang Yuan|46.3421|125.8424||1|0|China Standard Time
1035|GYY|212|Gary|Gary|Gary|41.5906|-87.3472|IN|1|0|
1036|GZA|167|Gaza|Gaza|Gaza|31.5016951|34.4668445||1|0|West Bank Standard Time
1037|GZM|139|Gozo|Gozo|Gozo|36.0442999|14.2512221||1|0|
1038|GZT|204|Gaziantep|Gaziantep|Gaziantep|37.075|37.385||1|0|Turkey Standard Time
1039|HAC|102|Hachijo Jima|Hachijo Jima|Hachijo Jima|33.1030212|139.8035566||1|0|Tokyo Standard Time
1040|HAD|180|Halmstad|Halmstad|Halmstad|56.6718|12.8556||1|0|W. Europe Standard Time
1041|HAG|152|La Haya|The Hague|Haia|52.08|4.27||1|0|
1042|HAJ|51|Hanover|Hanover|Hanover|52.367|9.7167||1|0|W. Europe Standard Time
1043|HAK|43|Haikou|Haikou|Haikou|20.05|110.32||1|0|China Standard Time
1044|HAM|51|Hamburgo|Hamburg|Hamburg|53.55|10.0||1|0|W. Europe Standard Time
1045|HAN|219|Hanoi|Hanoi|Hanoi|21.0333|105.85||1|0|SE Asia Standard Time
1046|HAP|12|Long Island|Long Island|Long Island|-27.7420018|153.1938707||1|0|
1047|HAR|212|Harrisburg|Harrisburg|Harrisburg|40.2752|-76.8843|PA|1|0|Eastern Standard Time
1048|HAS|176|Hail|Hail|Hail|27.5236|41.7001||1|0|Arab Standard Time
1049|HAU|153|Haugesund|Haugesund|Haugesund|59.4119|5.2775||1|0|W. Europe Standard Time
1050|HAV|46|La Habana|Havana|Havana|23.132|-82.3642||1|0|Cuba Standard Time
1051|HBA|12|Hobart|Hobart|Hobart|-42.85|147.295||1|0|Tasmania Standard Time
1052|HBE|59|Borg El Arab|Borg El Arab|Borg El Arab|30.9150146|29.5455699||1|0|Egypt Standard Time
1053|HBG|212|Hattiesburg|Hattiesburg|Hattiesburg|31.3073|-89.3169|MS|1|0|Central Standard Time
1054|HBI|27|Harbour Island|Harbour Island|Harbour Island|25.50011|-76.6340511||1|0|
1055|HBT|176|Hafr Albatin|Hafr Albatin|Hafr Albatin|28.4337|45.9601||1|0|Sri Lanka Standard Time
1056|HCN|207|Hengchun|Hengchun|Hengchun|22.0042|120.7439||1|0|Taipei Standard Time
1057|HDB|51|Heidelberg|Heidelberg|Heidelberg|49.42|8.7||1|0|W. Europe Standard Time
1058|HDD|164|Hyderabad|Hyderabad|Hyderabad|17.4|78.48||1|0|Pakistan Standard Time
1059|HDF|51|Heringsdorf|Heringsdorf|Heringsdorf|53.9573545|14.1541603||1|0|W. Europe Standard Time
1060|HDN|212|Hayden|Hayden|Hayden|40.4852|-107.2423|CO|1|0|Mountain Standard Time
1061|HDS|226|Hoedspruit|Hoedspruit|Hoedspruit|-24.3512|30.9533||1|0|South Africa Standard Time
1062|HDY|198|Hat Yai|Hat Yai|Hat Yai|6.9964|100.4714||1|0|SE Asia Standard Time
1063|HEH|132|Heho|Heho|Heho|20.7231|96.8228||1|0|Myanmar Standard Time
1064|HEI|51|Heide Buesum|Heide Buesum|Heide Buesum|54.1958|9.0988||1|0|W. Europe Standard Time
1065|HEL|64|Helsinki|Helsinki|Helsinki|60.1756|24.9341||1|0|FLE Standard Time
1066|HER|82|Heraklion|Heraklion|Heraklion|35.3387352|25.1442126||1|0|GTB Standard Time
1067|HET|43|Hohhot|Hohhot|Hohhot|40.82|111.66||1|0|China Standard Time
1068|HEZ|212|Natchez|Natchez|Natchez|31.5437|-91.3869|MS|1|0|Central Standard Time
1069|HFA|94|Haifa|Haifa|Haifa|32.8204|34.98||1|0|Israel Standard Time
1070|HFD|212|Hartford|Hartford|Hartford|41.7661|-72.6834|CT|1|0|Eastern Standard Time
1071|HFE|43|Hefei|Hefei|Hefei|31.85|117.28||1|0|China Standard Time
1072|HFT|153|Hammerfest|Hammerfest|Hammerfest|70.6613|23.688||1|0|W. Europe Standard Time
1073|HGH|43|Hangzhou|Hangzhou|Hangzhou|30.25|120.17||1|0|China Standard Time
1074|HGL|51|Helgoland|Helgoland|Helgoland|54.1813|7.8843||1|0|W. Europe Standard Time
1075|HGN|198|Mae Hongson|Mae Hongson|Mae Hongson|19.301|97.969||1|0|SE Asia Standard Time
1076|HGR|212|Hagerstown|Hagerstown|Hagerstown|39.6401|-77.7217|MD|1|0|Eastern Standard Time
1077|HGU|162|Mt Hagen|Mt Hagen|Mt Hagen|-5.8632|144.2168||1|0|West Pacific Standard Time
1078|HHA|43|Huanghua|Huanghua|Huanghua|38.3704|117.33||1|0|
1079|HHH|212|Hilton Head|Hilton Head|Hilton Head|32.1896|-80.7499|SC|1|0|Eastern Standard Time
1080|HHQ|198|Hua Hin|Hua Hin|Hua Hin|12.5697|99.9443||1|0|SE Asia Standard Time
1081|HHR|212|Hawthorne|Hawthorne|Hawthorne|33.9147|-118.3476|CA|1|0|Pacific Standard Time
1082|HIB|212|Hibbing|Hibbing|Hibbing|47.3981|-92.9487|MN|1|0|Central Standard Time
1083|HID|12|Horn Island|Horn Island|Horn Island|-10.611642|142.2868647||1|0|E. Australia Standard Time
1084|HII|212|Lake Havasu Cty|Lake Havasu Cty|Lake Havasu Cty|34.5006|-114.3115|AZ|1|0|US Mountain Standard Time
1085|HIJ|102|Hiroshima|Hiroshima|Hiroshima|34.3878|132.4429||1|0|Tokyo Standard Time
1086|HIN|110|Chinju|Chinju|Chinju|35.1928|128.0847||1|0|Korea Standard Time
1087|HIO|212|Hillsboro|Hillsboro|Hillsboro|45.5289|-122.9373|OR|1|0|Pacific Standard Time
1088|HIR|177|Honiara|Honiara|Honiara|-9.438|159.9498||1|0|Central Pacific Standard Time
1089|HIS|12|Hayman Island|Hayman Island|Hayman Island|-20.0499552|148.8888003||1|0|
1090|HJR|95|Khajuraho|Khajuraho|Khajuraho|24.8481|79.9335||1|0|India Standard Time
1091|HKA|212|Blytheville|Blytheville|Blytheville|35.9326|-89.9053|AR|1|0|Central Standard Time
1092|HKB|212|Healy Lake|Healy Lake|Healy Lake|64.0281|-144.633|AK|1|0|Alaskan Standard Time
1093|HKD|102|Hakodate|Hakodate|Hakodate|41.795|140.74||1|0|Tokyo Standard Time
1094|HKG|87|Hong Kong|Hong Kong|Hong Kong|22.305|114.185||1|0|China Standard Time
1095|HKK|157|Hokitika|Hokitika|Hokitika|-42.7072|171.01||1|0|New Zealand Standard Time
1096|HKN|162|Hoskins|Hoskins|Hoskins|-5.4746|150.41||1|0|West Pacific Standard Time
1097|HKT|198|Phuket|Phuket|Phuket|7.8765|98.3815||1|0|SE Asia Standard Time
1098|HKY|212|Hickory|Hickory|Hickory|35.7425|-81.323|NC|1|0|Eastern Standard Time
1099|HLA|226|Lanseria|Lanseria|Lanseria|-25.9391417|27.8918068||1|0|South Africa Standard Time
1100|HLB|212|Batesville|Batesville|Batesville|39.2974|-85.2139|IN|1|0|US Eastern Standard Time
1101|HLF|180|Hultsfred|Hultsfred|Hultsfred|57.4833|15.8333||1|0|W. Europe Standard Time
1102|HLM|212|Holland|Holland|Holland|42.7676|-86.0984|MI|1|0|Eastern Standard Time
1103|HLN|212|Helena|Helena|Helena|46.5963|-112.0196|MT|1|0|Mountain Standard Time
1104|HLS|12|St Helens|St Helens|St Helens|-41.3215|148.2492||1|0|Tasmania Standard Time
1105|HLW|226|Hluhluwe|Hluhluwe|Hluhluwe|-28.0333|32.2833||1|0|South Africa Standard Time
1106|HLY|71|Holyhead|Holyhead|Holyhead|53.3|-4.6333||1|0|
1107|HLZ|157|Hamilton|Hamilton|Hamilton|-37.7783|175.2896||1|0|New Zealand Standard Time
1108|HMO|143|Hermosillo|Hermosillo|Hermosillo|29.0989|-110.9541|MX_SON|1|0|US Mountain Standard Time
1109|HMR|153|Hamar|Hamar|Hamar|60.82|11.069||1|0|W. Europe Standard Time
1110|HNA|102|Morioka|Morioka|Morioka|39.72|141.13||1|0|Tokyo Standard Time
1111|HNB|212|Huntingburg|Huntingburg|Huntingburg|38.3009|-86.9625|IN|1|0|Eastern Standard Time
1112|HNH|212|Hoonah|Hoonah|Hoonah|58.112|-135.425|AK|1|0|Alaskan Standard Time
1113|HNL|212|Honolulu|Honolulu|Honolulu|21.3293|-157.846|HI|1|0|Hawaiian Standard Time
1114|HNM|212|Hana|Hana|Hana|20.772|-156.0107|HI|1|0|Hawaiian Standard Time
1115|HNS|212|Haines|Haines|Haines|59.2419|-135.4549|AK|1|0|Alaskan Standard Time
1116|HNY|43|Hengyang|Hengyang|Hengyang|26.88|112.59||1|0|China Standard Time
1117|HOB|212|Hobbs|Hobbs|Hobbs|32.7281|-103.1597|NM|1|0|Mountain Standard Time
1118|HOG|46|Holguin|Holguin|Holguin|20.8872|-76.2631||1|0|Cuba Standard Time
1119|HOM|212|Homer|Homer|Homer|59.653|-151.5256|AK|1|0|Alaskan Standard Time
1120|HON|212|Huron|Huron|Huron|44.3622|-98.2102|SD|1|0|Central Standard Time
1121|HOP|212|Hopkinsville|Hopkinsville|Hopkinsville|36.8388|-87.4789|KY|1|0|Central Standard Time
1122|HOQ|51|Hof De|Hof De|Hof De|50.317|11.9167||1|0|W. Europe Standard Time
1123|HOR|168|Horta, Islas Azores|Horta|Horta|38.5347|-28.6448||1|0|Azores Standard Time
1124|HOT|212|Hot Springs|Hot Springs|Hot Springs|34.4915|-93.0488|AR|1|0|Central Standard Time
1125|HOV|153|Orsta Volda|Orsta Volda|Orsta Volda|62.2|6.15||1|0|W. Europe Standard Time
1126|HP2|143|Huejotzingo|Huejotzingo|Huejotzingo|19.1589|-98.4082|MX_PUE|1|0|
1127|HPA|202|Ha Apai|Ha Apai|Ha Apai|-19.75|-174.366667||1|0|Tonga Standard Time
1128|HPH|219|Haiphong|Haiphong|Haiphong|20.83|106.6801||1|0|SE Asia Standard Time
1129|HPN|212|White Plains|White Plains|White Plains|41.022|-73.7548|NY|1|0|Eastern Standard Time
1130|HPV|212|Princeville|Princeville|Princeville|22.2177|-159.4809|HI|1|0|Hawaiian Standard Time
1131|HRB|43|Harbin|Harbin|Harbin|45.75|126.65||1|0|China Standard Time
1132|HRE|228|Harare|Harare|Harare|-17.8178|31.0447||1|0|South Africa Standard Time
1133|HRG|59|Hurghada|Hurghada|Hurghada|27.23|33.83||1|0|Egypt Standard Time
1134|HRK|209|Kharkov|Kharkov|Kharkov|50.7167|33.1167||1|0|FLE Standard Time
1135|HRL|212|Harlingen|Harlingen|Harlingen|26.1914|-97.6977|TX|1|0|Central Standard Time
1136|HRO|212|Harrison|Harrison|Harrison|40.7431|-74.1532|AR|1|0|Central Standard Time
1137|HRS|226|Harrismith|Harrismith|Harrismith|-28.2728|29.1295||1|0|South Africa Standard Time
1138|HRT|71|Harrogate|Harrogate|Harrogate|53.9833|-1.5333||1|0|GMT Standard Time
1139|HRZ|26|Horizontina|Horizontina|Horizontina|-27.6167|-54.3167|BR_RS|1|0|E. South America Standard Time
1140|HSG|102|Saga|Saga|Saga|35.017|135.695||1|0|Tokyo Standard Time
1141|HSI|212|Hastings|Hastings|Hastings|40.5962|-98.3926|NE|1|0|Central Standard Time
1142|HSP|212|Hot Springs|Hot Springs|Hot Springs|38.0013|-79.8239|VA|1|0|Eastern Standard Time
1143|HST|212|Homestead|Homestead|Homestead|40.4074|-79.9097|FL|1|0|Eastern Standard Time
1144|HSV|212|Huntsville|Huntsville|Huntsville|34.699|-86.6412|AL|1|0|Central Standard Time
1145|HSZ|207|Hsinchun|Hsinchun|Hsinchun|24.8168|120.9767||1|0|Taipei Standard Time
1146|HT2|143|Huamantla|Huamantla|Huamantla|19.3145|-97.9252|MX_TLA|1|0|
1147|HTA|174|Chita|Chita|Chita|52.055|113.465||1|0|Yakutsk Standard Time
1148|HTF|71|Hatfield|Hatfield|Hatfield|52.2333|-2.6167||1|0|
1149|HTI|12|Hamilton Island|Hamilton Island|Hamilton Island|-20.346|148.9519||1|0|E. Australia Standard Time
1150|HTO|212|East Hampton|East Hampton|East Hampton|41.5735|-72.4918|NY|1|0|Eastern Standard Time
1151|HTS|212|Huntington|Huntington|Huntington|38.4109|-82.4344|WV|1|0|Eastern Standard Time
1152|HTV|212|Huntsville|Huntsville|Huntsville|30.705|-95.5545|TX|1|0|Central Standard Time
1153|HUC|212|Humacao|Humacao|Humacao|18.1452808|-65.8251811|PR|1|0|SA Western Standard Time
1154|HUF|212|Terre Haute|Terre Haute|Terre Haute|39.4654|-87.3763|IN|1|0|US Eastern Standard Time
1155|HUH|161|Huahine|Huahine|Huahine|-23.3833|-149.4833||1|0|Hawaiian Standard Time
1156|HUI|219|Hu PG|Hu PG|Hu PG|16.3977827|107.691944||1|0|SE Asia Standard Time
1157|HUM|212|Houma|Houma|Houma|29.5799|-90.7058|LA|1|0|Central Standard Time
1158|HUN|207|Hualien|Hualien|Hualien|23.9837|121.6||1|0|Taipei Standard Time
1159|HUT|212|Hutchinson|Hutchinson|Hutchinson|38.0672|-97.9083|KS|1|0|Central Standard Time
1160|HUU|160|Huanuco|Huanuco|Huanuco|-9.92|-76.24||1|0|SA Pacific Standard Time
1161|HUV|180|Hudiksvall|Hudiksvall|Hudiksvall|61.7333|17.1125||1|0|W. Europe Standard Time
1162|HUX|143|Huatulco|Huatulco|Huatulco|15.7502838|-96.1378387|MX_OAX|1|0|Central Standard Time (Mexico)
1163|HUY|71|Humberside|Humberside|Humberside|53.5803147|-0.3490059||1|0|GMT Standard Time
1164|HVB|12|Hervey Bay|Hervey Bay|Hervey Bay|-25.2887|152.8409||1|0|E. Australia Standard Time
1165|HVG|153|Honningsvag|Honningsvag|Honningsvag|70.9833|25.9833||1|0|W. Europe Standard Time
1166|HVN|212|New Haven|New Haven|New Haven|41.3112|-72.9245|CT|1|0|Eastern Standard Time
1167|HVR|212|Havre|Havre|Havre|48.5417|-109.6782|MT|1|0|Mountain Standard Time
1168|HWD|212|Hayward|Hayward|Hayward|37.6327|-122.0776|CA|1|0|Pacific Standard Time
1169|HWN|228|Hwange|Hwange|Hwange|-18.37|26.5||1|0|South Africa Standard Time
1170|HYA|212|Hyannis|Hyannis|Hyannis|41.6529|-70.2828|MA|1|0|Eastern Standard Time
1171|HYD|95|Hyderabad|Hyderabad|Hyderabad|17.4|78.48||1|0|India Standard Time
1172|HYN|43|Huangyan|Huangyan|Huangyan|28.65|121.25||1|0|China Standard Time
1173|HYR|212|Hayward|Hayward|Hayward|46.0094|-91.4826|WI|1|0|Central Standard Time
1174|HYS|212|Hays|Hays|Hays|38.8806|-99.3214|KS|1|0|Central Standard Time
